Time (ms),IMU_X_Raw.XACCEL_raw,Time (ms),IMU_X_Raw.XGYRO_raw,Time (ms),IMU_Y_Raw.YACCEL_raw,Time (ms),IMU_Y_Raw.YGYRO_raw,Time (ms),IMU_Z_Raw.ZACCEL_raw,Time (ms),IMU_Z_Raw.ZGYRO_raw,Time (ms),IMU_XACCEL_Processed.IMU_XACCEL_Processed,Time (ms),IMU_YACCEL_Processed.IMU_YACCEL_Processed,Time (ms),IMU_ZACCEL_Processed.IMU_ZACCEL_Processed,Time (ms),IMU_XGYRO_Processed.IMU_XGYRO_Processed,Time (ms),IMU_YGYRO_Processed.IMU_YGYRO_Processed,Time (ms),IMU_ZGYRO_Processed.IMU_ZGYRO_Processed,Time (ms),GUI.SCRN_NO,Time (ms),GUI.RENC_CLK,Time (ms),GUI.RENC_ACLK,Time (ms),GUI.RENC_SW,Time (ms),LED_CNTRL.LED_OVRRD,Time (ms),LED_CNTRL.XLED_PWM_Mode,Time (ms),LED_CNTRL.YLED_PWM_Mode,Time (ms),LED_CNTRL.ZLED_PWM_Mode,Time (ms),LED_CNTRL.XLED_state,Time (ms),LED_CNTRL.YLED_state,Time (ms),LED_CNTRL.ZLED_state,Time (ms),LED_CNTRL.TLED_OVRRD,Time (ms),LED_CNTRL.TLED_mode,Time (ms),LED_CNTRL.XLED_Brightness,Time (ms),LED_CNTRL.YLED_Brightness,Time (ms),LED_CNTRL.ZLED_Brightness,Time (ms),Roll.Roll_Accel,Time (ms),Roll.Roll_Gyro,Time (ms),Roll.Roll_CF,Time (ms),Pitch.Pitch_Accel,Time (ms),Pitch.Pitch_Gyro,Time (ms),Pitch.Pitch_CF,Time (ms),Yaw.Yaw_Accel,Time (ms),Yaw.Yaw_Gyro,Time (ms),Yaw.Yaw_CF,Time (ms),IMU_Temp.IMU_Temp_Raw,Time (ms),IMU_Temp.IMU_Temp_Processed
1077.000000,64488.000000,1077.000000,65346.000000,1077.000000,63436.000000,1077.000000,65493.000000,1077.000000,15144.000000,1077.000000,27.000000,1077.000000,-1.000000,1077.000000,-1.000000,1077.000000,1001.000000,1077.000000,64.000000,1077.000000,-15.000000,1077.000000,127.000000,1078.000000,0.000000,1078.000000,0.000000,1078.000000,0.000000,1078.000000,0.000000,1078.000000,0.000000,1078.000000,0.000000,1078.000000,0.000000,1078.000000,0.000000,1078.000000,0.000000,1078.000000,0.000000,1078.000000,0.000000,1078.000000,0.000000,1078.000000,0.000000,1078.000000,0.000000,1078.000000,0.000000,1078.000000,0.000000,1079.000000,0.000000,1079.000000,0.000000,1079.000000,0.000000,1079.000000,0.000000,1079.000000,0.000000,1079.000000,0.000000,1079.000000,0.000000,1079.000000,0.000000,1079.000000,0.000000,1081.000000,0.000000,1081.000000,0.000000
1077.000000,64524.000000,1077.000000,65346.000000,1077.000000,63492.000000,1077.000000,65492.000000,1077.000000,15076.000000,1077.000000,25.000000,1077.000000,1.000000,1077.000000,3.000000,1077.000000,997.000000,1077.000000,64.000000,1077.000000,-45.000000,1078.000000,66.000000,1083.000000,0.000000,1083.000000,0.000000,1083.000000,0.000000,1083.000000,0.000000,1083.000000,0.000000,1083.000000,0.000000,1083.000000,0.000000,1083.000000,0.000000,1083.000000,0.000000,1083.000000,0.000000,1083.000000,0.000000,1083.000000,0.000000,1083.000000,0.000000,1083.000000,0.000000,1083.000000,0.000000,1083.000000,0.000000,1081.000000,0.000000,1081.000000,0.000000,1081.000000,0.000000,1081.000000,0.000000,1081.000000,0.000000,1081.000000,0.000000,1081.000000,0.000000,1081.000000,0.000000,1081.000000,0.000000,1093.000000,0.000000,1093.000000,0.000000
1078.000000,64556.000000,1078.000000,65344.000000,1078.000000,63444.000000,1078.000000,65495.000000,1078.000000,15168.000000,1078.000000,23.000000,1078.000000,3.000000,1078.000000,0.000000,1078.000000,1002.000000,1078.000000,3.000000,1078.000000,46.000000,1078.000000,5.000000,1088.000000,0.000000,1088.000000,0.000000,1088.000000,0.000000,1088.000000,0.000000,1088.000000,0.000000,1088.000000,0.000000,1088.000000,0.000000,1088.000000,0.000000,1088.000000,0.000000,1088.000000,0.000000,1088.000000,0.000000,1088.000000,0.000000,1088.000000,0.000000,1088.000000,0.000000,1088.000000,0.000000,1088.000000,0.000000,1084.000000,0.000000,1084.000000,0.000000,1084.000000,0.000000,1084.000000,0.000000,1084.000000,0.000000,1084.000000,0.000000,1084.000000,0.000000,1084.000000,0.000000,1084.000000,0.000000,1103.000000,0.000000,1103.000000,0.000000
1078.000000,64516.000000,1078.000000,65344.000000,1078.000000,63436.000000,1078.000000,65492.000000,1078.000000,15184.000000,1078.000000,19.000000,1078.000000,0.000000,1078.000000,-1.000000,1078.000000,1003.000000,1078.000000,3.000000,1078.000000,-45.000000,1078.000000,-117.000000,1093.000000,0.000000,1093.000000,0.000000,1093.000000,0.000000,1093.000000,0.000000,1093.000000,0.000000,1093.000000,0.000000,1093.000000,0.000000,1093.000000,0.000000,1093.000000,0.000000,1093.000000,0.000000,1093.000000,0.000000,1093.000000,0.000000,1093.000000,0.000000,1093.000000,0.000000,1093.000000,0.000000,1093.000000,0.000000,1086.000000,0.000000,1086.000000,0.000000,1086.000000,0.000000,1086.000000,0.000000,1086.000000,0.000000,1086.000000,0.000000,1086.000000,0.000000,1086.000000,0.000000,1086.000000,0.000000,1115.000000,0.000000,1115.000000,0.000000
1078.000000,64516.000000,1078.000000,65344.000000,1079.000000,63436.000000,1079.000000,65492.000000,1079.000000,15184.000000,1079.000000,19.000000,1079.000000,0.000000,1079.000000,-1.000000,1079.000000,1003.000000,1079.000000,3.000000,1079.000000,-45.000000,1079.000000,-117.000000,1097.000000,0.000000,1097.000000,0.000000,1097.000000,0.000000,1097.000000,0.000000,1097.000000,0.000000,1097.000000,0.000000,1097.000000,0.000000,1097.000000,0.000000,1097.000000,0.000000,1097.000000,0.000000,1097.000000,0.000000,1097.000000,0.000000,1097.000000,0.000000,1097.000000,0.000000,1097.000000,0.000000,1097.000000,0.000000,1088.000000,0.000000,1088.000000,0.000000,1088.000000,0.000000,1088.000000,0.000000,1088.000000,0.000000,1088.000000,0.000000,1088.000000,0.000000,1088.000000,0.000000,1088.000000,0.000000,1124.000000,0.000000,1124.000000,0.000000
1079.000000,64480.000000,1079.000000,65346.000000,1079.000000,63416.000000,1079.000000,65495.000000,1079.000000,15116.000000,1079.000000,22.000000,1079.000000,-2.000000,1079.000000,-2.000000,1079.000000,999.000000,1079.000000,64.000000,1079.000000,46.000000,1079.000000,-25.000000,1101.000000,0.000000,1101.000000,0.000000,1101.000000,0.000000,1101.000000,0.000000,1101.000000,0.000000,1101.000000,0.000000,1101.000000,0.000000,1101.000000,0.000000,1101.000000,0.000000,1101.000000,0.000000,1101.000000,0.000000,1101.000000,0.000000,1101.000000,0.000000,1101.000000,0.000000,1101.000000,0.000000,1101.000000,0.000000,1091.000000,0.000000,1091.000000,0.000000,1091.000000,0.000000,1091.000000,0.000000,1091.000000,0.000000,1091.000000,0.000000,1091.000000,0.000000,1091.000000,0.000000,1091.000000,0.000000,1352.000000,0.000000,1352.000000,0.000000
1079.000000,64452.000000,1079.000000,65336.000000,1079.000000,63472.000000,1079.000000,65485.000000,1079.000000,15036.000000,1079.000000,21.000000,1079.000000,-4.000000,1079.000000,2.000000,1079.000000,994.000000,1080.000000,-241.000000,1080.000000,-259.000000,1080.000000,-56.000000,1105.000000,0.000000,1105.000000,0.000000,1105.000000,0.000000,1105.000000,0.000000,1105.000000,0.000000,1105.000000,0.000000,1105.000000,0.000000,1105.000000,0.000000,1105.000000,0.000000,1105.000000,0.000000,1105.000000,0.000000,1105.000000,0.000000,1105.000000,0.000000,1105.000000,0.000000,1105.000000,0.000000,1105.000000,0.000000,1093.000000,0.000000,1093.000000,0.000000,1093.000000,0.000000,1093.000000,0.000000,1093.000000,0.000000,1093.000000,0.000000,1093.000000,0.000000,1093.000000,0.000000,1093.000000,0.000000,1587.000000,0.000000,1587.000000,0.000000
1080.000000,64512.000000,1080.000000,65346.000000,1080.000000,63448.000000,1080.000000,65497.000000,1080.000000,15232.000000,1080.000000,19.000000,1080.000000,0.000000,1080.000000,0.000000,1080.000000,1006.000000,1080.000000,64.000000,1080.000000,107.000000,1080.000000,-117.000000,1109.000000,0.000000,1109.000000,0.000000,1109.000000,0.000000,1109.000000,0.000000,1109.000000,0.000000,1109.000000,0.000000,1109.000000,0.000000,1109.000000,0.000000,1109.000000,0.000000,1109.000000,0.000000,1109.000000,0.000000,1109.000000,0.000000,1109.000000,0.000000,1109.000000,0.000000,1109.000000,0.000000,1109.000000,0.000000,1095.000000,0.000000,1095.000000,0.000000,1095.000000,0.000000,1095.000000,0.000000,1095.000000,0.000000,1095.000000,0.000000,1096.000000,0.000000,1096.000000,0.000000,1096.000000,0.000000,1829.000000,0.000000,1829.000000,0.000000
1080.000000,64580.000000,1080.000000,65349.000000,1080.000000,63344.000000,1080.000000,65493.000000,1080.000000,15016.000000,1080.000000,28.000000,1080.000000,4.000000,1080.000000,-6.000000,1080.000000,993.000000,1080.000000,156.000000,1080.000000,-15.000000,1080.000000,158.000000,1114.000000,0.000000,1114.000000,0.000000,1114.000000,0.000000,1114.000000,0.000000,1114.000000,0.000000,1114.000000,0.000000,1114.000000,0.000000,1114.000000,0.000000,1114.000000,0.000000,1114.000000,0.000000,1114.000000,0.000000,1114.000000,0.000000,1114.000000,0.000000,1114.000000,0.000000,1114.000000,0.000000,1114.000000,0.000000,1097.000000,0.000000,1097.000000,0.000000,1097.000000,0.000000,1097.000000,0.000000,1097.000000,0.000000,1097.000000,0.000000,1097.000000,0.000000,1097.000000,0.000000,1097.000000,0.000000,2064.000000,0.000000,2064.000000,0.000000
1080.000000,64580.000000,1080.000000,65349.000000,1081.000000,63344.000000,1081.000000,65493.000000,1081.000000,15016.000000,1081.000000,28.000000,1081.000000,4.000000,1081.000000,-6.000000,1081.000000,993.000000,1081.000000,156.000000,1081.000000,-15.000000,1081.000000,158.000000,1117.000000,0.000000,1117.000000,0.000000,1117.000000,0.000000,1117.000000,0.000000,1117.000000,0.000000,1117.000000,0.000000,1117.000000,0.000000,1117.000000,0.000000,1117.000000,0.000000,1117.000000,0.000000,1117.000000,0.000000,1117.000000,0.000000,1117.000000,0.000000,1117.000000,0.000000,1117.000000,0.000000,1117.000000,0.000000,1099.000000,0.000000,1099.000000,0.000000,1099.000000,0.000000,1099.000000,0.000000,1099.000000,0.000000,1099.000000,0.000000,1099.000000,0.000000,1099.000000,0.000000,1099.000000,0.000000,2305.000000,0.000000,2305.000000,0.000000
1081.000000,64568.000000,1081.000000,65339.000000,1081.000000,63448.000000,1081.000000,65492.000000,1081.000000,15076.000000,1081.000000,18.000000,1081.000000,3.000000,1081.000000,0.000000,1081.000000,997.000000,1081.000000,-150.000000,1081.000000,-45.000000,1081.000000,-147.000000,1121.000000,0.000000,1121.000000,0.000000,1121.000000,0.000000,1121.000000,0.000000,1121.000000,0.000000,1121.000000,0.000000,1121.000000,0.000000,1121.000000,0.000000,1121.000000,0.000000,1121.000000,0.000000,1121.000000,0.000000,1121.000000,0.000000,1121.000000,0.000000,1121.000000,0.000000,1121.000000,0.000000,1121.000000,0.000000,1101.000000,0.000000,1101.000000,0.000000,1101.000000,0.000000,1101.000000,0.000000,1101.000000,0.000000,1101.000000,0.000000,1101.000000,0.000000,1101.000000,0.000000,1101.000000,0.000000,2536.000000,0.000000,2536.000000,0.000000
1081.000000,64508.000000,1081.000000,65343.000000,1082.000000,63464.000000,1082.000000,65490.000000,1082.000000,15204.000000,1082.000000,21.000000,1082.000000,0.000000,1082.000000,1.000000,1082.000000,1005.000000,1082.000000,-28.000000,1082.000000,-106.000000,1082.000000,-56.000000,1157.000000,0.000000,1157.000000,0.000000,1157.000000,0.000000,1157.000000,0.000000,1157.000000,0.000000,1157.000000,0.000000,1157.000000,0.000000,1157.000000,0.000000,1157.000000,0.000000,1157.000000,0.000000,1157.000000,0.000000,1157.000000,0.000000,1157.000000,0.000000,1157.000000,0.000000,1157.000000,0.000000,1157.000000,0.000000,1103.000000,0.000000,1103.000000,0.000000,1103.000000,0.000000,1103.000000,0.000000,1103.000000,0.000000,1103.000000,0.000000,1103.000000,0.000000,1103.000000,0.000000,1103.000000,0.000000,2779.000000,0.000000,2779.000000,0.000000
1082.000000,64476.000000,1082.000000,65352.000000,1083.000000,63484.000000,1083.000000,65484.000000,1083.000000,15144.000000,1083.000000,22.000000,1083.000000,-2.000000,1083.000000,2.000000,1083.000000,1001.000000,1083.000000,247.000000,1083.000000,-289.000000,1083.000000,-25.000000,1251.000000,0.000000,1251.000000,0.000000,1251.000000,0.000000,1251.000000,0.000000,1251.000000,0.000000,1251.000000,0.000000,1251.000000,0.000000,1251.000000,0.000000,1251.000000,0.000000,1251.000000,0.000000,1251.000000,0.000000,1251.000000,0.000000,1251.000000,0.000000,1251.000000,0.000000,1251.000000,0.000000,1251.000000,0.000000,1105.000000,0.000000,1105.000000,0.000000,1105.000000,0.000000,1105.000000,0.000000,1105.000000,0.000000,1105.000000,0.000000,1105.000000,0.000000,1105.000000,0.000000,1105.000000,0.000000,3012.000000,0.000000,3012.000000,0.000000
1083.000000,64476.000000,1083.000000,65352.000000,1083.000000,63484.000000,1083.000000,65484.000000,1083.000000,15144.000000,1083.000000,22.000000,1083.000000,-2.000000,1083.000000,2.000000,1083.000000,1001.000000,1083.000000,247.000000,1083.000000,-289.000000,1083.000000,-25.000000,1347.000000,0.000000,1347.000000,0.000000,1347.000000,0.000000,1347.000000,0.000000,1347.000000,0.000000,1347.000000,0.000000,1347.000000,0.000000,1347.000000,0.000000,1347.000000,0.000000,1347.000000,0.000000,1347.000000,0.000000,1347.000000,0.000000,1347.000000,0.000000,1347.000000,0.000000,1347.000000,0.000000,1347.000000,0.000000,1108.000000,0.000000,1108.000000,0.000000,1108.000000,0.000000,1108.000000,0.000000,1108.000000,0.000000,1108.000000,0.000000,1108.000000,0.000000,1108.000000,0.000000,1108.000000,0.000000,3253.000000,0.000000,3253.000000,0.000000
1083.000000,64668.000000,1083.000000,65345.000000,1083.000000,63444.000000,1083.000000,65489.000000,1083.000000,15272.000000,1083.000000,21.000000,1084.000000,10.000000,1084.000000,0.000000,1084.000000,1009.000000,1084.000000,33.000000,1084.000000,-137.000000,1084.000000,-56.000000,1441.000000,0.000000,1441.000000,0.000000,1441.000000,0.000000,1441.000000,0.000000,1441.000000,0.000000,1441.000000,0.000000,1441.000000,0.000000,1441.000000,0.000000,1441.000000,0.000000,1441.000000,0.000000,1441.000000,0.000000,1441.000000,0.000000,1441.000000,0.000000,1441.000000,0.000000,1441.000000,0.000000,1441.000000,0.000000,1110.000000,0.000000,1110.000000,0.000000,1110.000000,0.000000,1110.000000,0.000000,1110.000000,0.000000,1110.000000,0.000000,1110.000000,0.000000,1110.000000,0.000000,1110.000000,0.000000,3487.000000,0.000000,3487.000000,0.000000
1084.000000,64664.000000,1084.000000,65349.000000,1084.000000,63428.000000,1084.000000,65490.000000,1084.000000,15224.000000,1084.000000,25.000000,1084.000000,9.000000,1084.000000,-1.000000,1084.000000,1006.000000,1084.000000,156.000000,1084.000000,-106.000000,1084.000000,66.000000,1538.000000,0.000000,1538.000000,0.000000,1538.000000,0.000000,1538.000000,0.000000,1538.000000,0.000000,1538.000000,0.000000,1538.000000,0.000000,1538.000000,0.000000,1538.000000,0.000000,1538.000000,0.000000,1538.000000,0.000000,1538.000000,0.000000,1538.000000,0.000000,1538.000000,0.000000,1538.000000,0.000000,1538.000000,0.000000,1112.000000,0.000000,1112.000000,0.000000,1112.000000,0.000000,1112.000000,0.000000,1112.000000,0.000000,1112.000000,0.000000,1112.000000,0.000000,1112.000000,0.000000,1112.000000,0.000000,3729.000000,0.000000,3729.000000,0.000000
1084.000000,64720.000000,1084.000000,65345.000000,1084.000000,63384.000000,1084.000000,65499.000000,1084.000000,15252.000000,1084.000000,27.000000,1084.000000,13.000000,1084.000000,-4.000000,1084.000000,1007.000000,1085.000000,33.000000,1085.000000,168.000000,1085.000000,127.000000,1632.000000,0.000000,1632.000000,0.000000,1632.000000,0.000000,1632.000000,0.000000,1632.000000,0.000000,1632.000000,0.000000,1632.000000,0.000000,1632.000000,0.000000,1632.000000,0.000000,1632.000000,0.000000,1632.000000,0.000000,1632.000000,0.000000,1632.000000,0.000000,1632.000000,0.000000,1632.000000,0.000000,1632.000000,0.000000,1115.000000,0.000000,1115.000000,0.000000,1115.000000,0.000000,1115.000000,0.000000,1115.000000,0.000000,1115.000000,0.000000,1115.000000,0.000000,1115.000000,0.000000,1115.000000,0.000000,3962.000000,0.000000,3962.000000,0.000000
1085.000000,64720.000000,1085.000000,65345.000000,1085.000000,63384.000000,1085.000000,65499.000000,1085.000000,15252.000000,1085.000000,27.000000,1085.000000,13.000000,1085.000000,-4.000000,1085.000000,1007.000000,1085.000000,33.000000,1085.000000,168.000000,1085.000000,127.000000,1726.000000,0.000000,1726.000000,0.000000,1726.000000,0.000000,1726.000000,0.000000,1726.000000,0.000000,1726.000000,0.000000,1726.000000,0.000000,1726.000000,0.000000,1726.000000,0.000000,1726.000000,0.000000,1726.000000,0.000000,1726.000000,0.000000,1726.000000,0.000000,1726.000000,0.000000,1726.000000,0.000000,1726.000000,0.000000,1116.000000,0.000000,1116.000000,0.000000,1116.000000,0.000000,1116.000000,0.000000,1116.000000,0.000000,1116.000000,0.000000,1116.000000,0.000000,1116.000000,0.000000,1116.000000,0.000000,4202.000000,0.000000,4202.000000,0.000000
1085.000000,64748.000000,1085.000000,65342.000000,1085.000000,63376.000000,1085.000000,65496.000000,1085.000000,15244.000000,1085.000000,18.000000,1085.000000,14.000000,1085.000000,-4.000000,1085.000000,1007.000000,1085.000000,-58.000000,1085.000000,77.000000,1085.000000,-147.000000,1821.000000,0.000000,1821.000000,0.000000,1821.000000,0.000000,1821.000000,0.000000,1821.000000,0.000000,1821.000000,0.000000,1821.000000,0.000000,1821.000000,0.000000,1821.000000,0.000000,1821.000000,0.000000,1821.000000,0.000000,1821.000000,0.000000,1821.000000,0.000000,1821.000000,0.000000,1821.000000,0.000000,1821.000000,0.000000,1118.000000,0.000000,1118.000000,0.000000,1118.000000,0.000000,1118.000000,0.000000,1118.000000,0.000000,1118.000000,0.000000,1118.000000,0.000000,1118.000000,0.000000,1118.000000,0.000000,4437.000000,0.000000,4437.000000,0.000000
1085.000000,64556.000000,1085.000000,65344.000000,1085.000000,63472.000000,1085.000000,65496.000000,1086.000000,15348.000000,1086.000000,22.000000,1086.000000,3.000000,1086.000000,2.000000,1086.000000,1013.000000,1086.000000,3.000000,1086.000000,77.000000,1086.000000,-25.000000,1917.000000,0.000000,1917.000000,0.000000,1917.000000,0.000000,1917.000000,0.000000,1917.000000,0.000000,1917.000000,0.000000,1917.000000,0.000000,1917.000000,0.000000,1917.000000,0.000000,1917.000000,0.000000,1917.000000,0.000000,1917.000000,0.000000,1917.000000,0.000000,1917.000000,0.000000,1917.000000,0.000000,1917.000000,0.000000,1120.000000,0.000000,1120.000000,0.000000,1120.000000,0.000000,1120.000000,0.000000,1120.000000,0.000000,1120.000000,0.000000,1120.000000,0.000000,1120.000000,0.000000,1120.000000,0.000000,4680.000000,0.000000,4680.000000,0.000000
1086.000000,64584.000000,1086.000000,65349.000000,1086.000000,63404.000000,1086.000000,65497.000000,1086.000000,15244.000000,1086.000000,21.000000,1086.000000,4.000000,1086.000000,-3.000000,1086.000000,1007.000000,1086.000000,156.000000,1086.000000,107.000000,1086.000000,-56.000000,2011.000000,0.000000,2011.000000,0.000000,2011.000000,0.000000,2011.000000,0.000000,2011.000000,0.000000,2011.000000,0.000000,2011.000000,0.000000,2011.000000,0.000000,2011.000000,0.000000,2011.000000,0.000000,2011.000000,0.000000,2011.000000,0.000000,2011.000000,0.000000,2011.000000,0.000000,2011.000000,0.000000,2011.000000,0.000000,1122.000000,0.000000,1122.000000,0.000000,1122.000000,0.000000,1122.000000,0.000000,1122.000000,0.000000,1122.000000,0.000000,1122.000000,0.000000,1122.000000,0.000000,1122.000000,0.000000,4913.000000,0.000000,4913.000000,0.000000
1086.000000,64584.000000,1086.000000,65349.000000,1086.000000,63404.000000,1086.000000,65497.000000,1087.000000,15244.000000,1087.000000,21.000000,1087.000000,4.000000,1087.000000,-3.000000,1087.000000,1007.000000,1087.000000,156.000000,1087.000000,107.000000,1087.000000,-56.000000,2107.000000,0.000000,2107.000000,0.000000,2107.000000,0.000000,2107.000000,0.000000,2107.000000,0.000000,2107.000000,0.000000,2107.000000,0.000000,2107.000000,0.000000,2107.000000,0.000000,2107.000000,0.000000,2107.000000,0.000000,2107.000000,0.000000,2107.000000,0.000000,2107.000000,0.000000,2107.000000,0.000000,2107.000000,0.000000,1124.000000,0.000000,1124.000000,0.000000,1124.000000,0.000000,1124.000000,0.000000,1124.000000,0.000000,1124.000000,0.000000,1124.000000,0.000000,1124.000000,0.000000,1124.000000,0.000000,5152.000000,0.000000,5152.000000,0.000000
1087.000000,64604.000000,1087.000000,65343.000000,1087.000000,63444.000000,1087.000000,65491.000000,1087.000000,15060.000000,1087.000000,24.000000,1087.000000,6.000000,1087.000000,0.000000,1087.000000,996.000000,1087.000000,-28.000000,1087.000000,-76.000000,1087.000000,36.000000,2202.000000,0.000000,2202.000000,0.000000,2202.000000,0.000000,2202.000000,0.000000,2202.000000,0.000000,2202.000000,0.000000,2202.000000,0.000000,2202.000000,0.000000,2202.000000,0.000000,2202.000000,0.000000,2202.000000,0.000000,2202.000000,0.000000,2202.000000,0.000000,2202.000000,0.000000,2202.000000,0.000000,2202.000000,0.000000,1163.000000,0.000000,1163.000000,0.000000,1163.000000,0.000000,1163.000000,0.000000,1163.000000,0.000000,1163.000000,0.000000,1163.000000,0.000000,1163.000000,0.000000,1163.000000,0.000000,5387.000000,0.000000,5387.000000,0.000000
1087.000000,64552.000000,1087.000000,65342.000000,1087.000000,63404.000000,1087.000000,65490.000000,1087.000000,15168.000000,1087.000000,24.000000,1087.000000,2.000000,1087.000000,-3.000000,1088.000000,1002.000000,1088.000000,-58.000000,1088.000000,-106.000000,1088.000000,36.000000,2297.000000,0.000000,2297.000000,0.000000,2297.000000,0.000000,2297.000000,0.000000,2297.000000,0.000000,2297.000000,0.000000,2297.000000,0.000000,2297.000000,0.000000,2297.000000,0.000000,2297.000000,0.000000,2297.000000,0.000000,2297.000000,0.000000,2297.000000,0.000000,2297.000000,0.000000,2297.000000,0.000000,2297.000000,0.000000,1208.000000,0.000000,1208.000000,0.000000,1208.000000,0.000000,1209.000000,0.000000,1209.000000,0.000000,1209.000000,0.000000,1209.000000,0.000000,1209.000000,0.000000,1209.000000,0.000000,5628.000000,0.000000,5628.000000,0.000000
1088.000000,64400.000000,1088.000000,65349.000000,1088.000000,63436.000000,1088.000000,65493.000000,1088.000000,15348.000000,1088.000000,27.000000,1088.000000,-7.000000,1088.000000,-1.000000,1088.000000,1013.000000,1088.000000,156.000000,1088.000000,-15.000000,1088.000000,127.000000,2393.000000,0.000000,2393.000000,0.000000,2393.000000,0.000000,2393.000000,0.000000,2393.000000,0.000000,2393.000000,0.000000,2393.000000,0.000000,2393.000000,0.000000,2393.000000,0.000000,2393.000000,0.000000,2393.000000,0.000000,2393.000000,0.000000,2393.000000,0.000000,2393.000000,0.000000,2393.000000,0.000000,2393.000000,0.000000,1257.000000,0.000000,1257.000000,0.000000,1257.000000,0.000000,1257.000000,0.000000,1257.000000,0.000000,1257.000000,0.000000,1257.000000,0.000000,1257.000000,0.000000,1257.000000,0.000000,5862.000000,0.000000,5862.000000,0.000000
1089.000000,64568.000000,1089.000000,65350.000000,1089.000000,63448.000000,1089.000000,65488.000000,1089.000000,15112.000000,1089.000000,19.000000,1089.000000,3.000000,1089.000000,0.000000,1089.000000,999.000000,1089.000000,186.000000,1089.000000,-167.000000,1089.000000,-117.000000,2487.000000,0.000000,2487.000000,0.000000,2487.000000,0.000000,2487.000000,0.000000,2487.000000,0.000000,2487.000000,0.000000,2487.000000,0.000000,2487.000000,0.000000,2487.000000,0.000000,2487.000000,0.000000,2487.000000,0.000000,2487.000000,0.000000,2487.000000,0.000000,2487.000000,0.000000,2487.000000,0.000000,2487.000000,0.000000,1304.000000,0.000000,1304.000000,0.000000,1304.000000,0.000000,1304.000000,0.000000,1304.000000,0.000000,1304.000000,0.000000,1304.000000,0.000000,1304.000000,0.000000,1304.000000,0.000000,6103.000000,0.000000,6103.000000,0.000000
1089.000000,64568.000000,1089.000000,65350.000000,1089.000000,63448.000000,1089.000000,65488.000000,1089.000000,15112.000000,1089.000000,19.000000,1089.000000,3.000000,1089.000000,0.000000,1089.000000,999.000000,1090.000000,186.000000,1090.000000,-167.000000,1090.000000,-117.000000,2581.000000,0.000000,2581.000000,0.000000,2581.000000,0.000000,2581.000000,0.000000,2581.000000,0.000000,2581.000000,0.000000,2581.000000,0.000000,2581.000000,0.000000,2581.000000,0.000000,2581.000000,0.000000,2581.000000,0.000000,2581.000000,0.000000,2581.000000,0.000000,2581.000000,0.000000,2581.000000,0.000000,2581.000000,0.000000,1352.000000,0.000000,1352.000000,0.000000,1352.000000,0.000000,1352.000000,0.000000,1352.000000,0.000000,1352.000000,0.000000,1352.000000,0.000000,1352.000000,0.000000,1352.000000,0.000000,,,,
1090.000000,64540.000000,1090.000000,65342.000000,1090.000000,63460.000000,1090.000000,65496.000000,1090.000000,14904.000000,1090.000000,13.000000,1090.000000,2.000000,1090.000000,1.000000,1090.000000,986.000000,1090.000000,-58.000000,1090.000000,77.000000,1090.000000,-300.000000,2677.000000,0.000000,2677.000000,0.000000,2677.000000,0.000000,2677.000000,0.000000,2677.000000,0.000000,2677.000000,0.000000,2677.000000,0.000000,2677.000000,0.000000,2677.000000,0.000000,2677.000000,0.000000,2677.000000,0.000000,2677.000000,0.000000,2677.000000,0.000000,2677.000000,0.000000,2677.000000,0.000000,2677.000000,0.000000,1398.000000,0.000000,1398.000000,0.000000,1398.000000,0.000000,1398.000000,0.000000,1398.000000,0.000000,1398.000000,0.000000,1399.000000,0.000000,1399.000000,0.000000,1399.000000,0.000000,,,,
1090.000000,64532.000000,1090.000000,65347.000000,1090.000000,63456.000000,1090.000000,65499.000000,1090.000000,15276.000000,1090.000000,21.000000,1090.000000,1.000000,1090.000000,1.000000,1090.000000,1009.000000,1090.000000,95.000000,1090.000000,168.000000,1091.000000,-56.000000,2772.000000,0.000000,2772.000000,0.000000,2772.000000,0.000000,2772.000000,0.000000,2772.000000,0.000000,2772.000000,0.000000,2772.000000,0.000000,2772.000000,0.000000,2772.000000,0.000000,2772.000000,0.000000,2772.000000,0.000000,2772.000000,0.000000,2772.000000,0.000000,2772.000000,0.000000,2772.000000,0.000000,2772.000000,0.000000,1448.000000,0.000000,1448.000000,0.000000,1448.000000,0.000000,1448.000000,0.000000,1448.000000,0.000000,1448.000000,0.000000,1448.000000,0.000000,1448.000000,0.000000,1448.000000,0.000000,,,,
1091.000000,64656.000000,1091.000000,65345.000000,1091.000000,63344.000000,1091.000000,65492.000000,1091.000000,15168.000000,1091.000000,21.000000,1091.000000,9.000000,1091.000000,-6.000000,1091.000000,1002.000000,1091.000000,33.000000,1091.000000,-45.000000,1091.000000,-56.000000,2867.000000,0.000000,2867.000000,0.000000,2867.000000,0.000000,2867.000000,0.000000,2867.000000,0.000000,2867.000000,0.000000,2867.000000,0.000000,2867.000000,0.000000,2867.000000,0.000000,2867.000000,0.000000,2867.000000,0.000000,2867.000000,0.000000,2867.000000,0.000000,2867.000000,0.000000,2867.000000,0.000000,2867.000000,0.000000,1492.000000,0.000000,1492.000000,0.000000,1492.000000,0.000000,1494.000000,0.000000,1494.000000,0.000000,1494.000000,0.000000,1494.000000,0.000000,1494.000000,0.000000,1494.000000,0.000000,,,,
1091.000000,64656.000000,1091.000000,65345.000000,1091.000000,63344.000000,1091.000000,65492.000000,1091.000000,15168.000000,1091.000000,21.000000,1091.000000,9.000000,1091.000000,-6.000000,1091.000000,1002.000000,1091.000000,33.000000,1091.000000,-45.000000,1091.000000,-56.000000,2962.000000,0.000000,2962.000000,0.000000,2962.000000,0.000000,2962.000000,0.000000,2962.000000,0.000000,2962.000000,0.000000,2962.000000,0.000000,2962.000000,0.000000,2962.000000,0.000000,2962.000000,0.000000,2962.000000,0.000000,2962.000000,0.000000,2962.000000,0.000000,2962.000000,0.000000,2962.000000,0.000000,2962.000000,0.000000,1542.000000,0.000000,1542.000000,0.000000,1542.000000,0.000000,1542.000000,0.000000,1542.000000,0.000000,1542.000000,0.000000,1542.000000,0.000000,1542.000000,0.000000,1542.000000,0.000000,,,,
1091.000000,64628.000000,1091.000000,65342.000000,1091.000000,63412.000000,1091.000000,65486.000000,1091.000000,15148.000000,1091.000000,27.000000,1092.000000,7.000000,1092.000000,-2.000000,1092.000000,1001.000000,1092.000000,-58.000000,1092.000000,-228.000000,1092.000000,127.000000,3056.000000,0.000000,3056.000000,0.000000,3056.000000,0.000000,3056.000000,0.000000,3056.000000,0.000000,3056.000000,0.000000,3056.000000,0.000000,3056.000000,0.000000,3056.000000,0.000000,3056.000000,0.000000,3056.000000,0.000000,3056.000000,0.000000,3056.000000,0.000000,3056.000000,0.000000,3056.000000,0.000000,3056.000000,0.000000,1590.000000,0.000000,1590.000000,0.000000,1590.000000,0.000000,1590.000000,0.000000,1590.000000,0.000000,1590.000000,0.000000,1590.000000,0.000000,1590.000000,0.000000,1590.000000,0.000000,,,,
1092.000000,64564.000000,1092.000000,65338.000000,1092.000000,63372.000000,1092.000000,65496.000000,1092.000000,15228.000000,1092.000000,20.000000,1092.000000,3.000000,1092.000000,-5.000000,1092.000000,1006.000000,1092.000000,-180.000000,1092.000000,77.000000,1092.000000,-86.000000,3151.000000,0.000000,3151.000000,0.000000,3151.000000,0.000000,3151.000000,0.000000,3151.000000,0.000000,3151.000000,0.000000,3151.000000,0.000000,3151.000000,0.000000,3151.000000,0.000000,3151.000000,0.000000,3151.000000,0.000000,3151.000000,0.000000,3151.000000,0.000000,3151.000000,0.000000,3151.000000,0.000000,3151.000000,0.000000,1639.000000,0.000000,1639.000000,0.000000,1639.000000,0.000000,1639.000000,0.000000,1639.000000,0.000000,1639.000000,0.000000,1639.000000,0.000000,1639.000000,0.000000,1639.000000,0.000000,,,,
1092.000000,64568.000000,1092.000000,65346.000000,1092.000000,63512.000000,1092.000000,65494.000000,1092.000000,15064.000000,1092.000000,23.000000,1092.000000,3.000000,1092.000000,4.000000,1092.000000,996.000000,1092.000000,64.000000,1092.000000,16.000000,1093.000000,5.000000,3247.000000,0.000000,3247.000000,0.000000,3247.000000,0.000000,3247.000000,0.000000,3247.000000,0.000000,3247.000000,0.000000,3247.000000,0.000000,3247.000000,0.000000,3247.000000,0.000000,3247.000000,0.000000,3247.000000,0.000000,3247.000000,0.000000,3247.000000,0.000000,3247.000000,0.000000,3247.000000,0.000000,3247.000000,0.000000,1682.000000,0.000000,1682.000000,0.000000,1682.000000,0.000000,1684.000000,0.000000,1684.000000,0.000000,1684.000000,0.000000,1684.000000,0.000000,1684.000000,0.000000,1684.000000,0.000000,,,,
1093.000000,64568.000000,1093.000000,65346.000000,1093.000000,63512.000000,1093.000000,65494.000000,1093.000000,15064.000000,1093.000000,23.000000,1093.000000,3.000000,1093.000000,4.000000,1093.000000,996.000000,1093.000000,64.000000,1093.000000,16.000000,1093.000000,5.000000,3342.000000,0.000000,3342.000000,0.000000,3342.000000,0.000000,3342.000000,0.000000,3342.000000,0.000000,3342.000000,0.000000,3342.000000,0.000000,3342.000000,0.000000,3342.000000,0.000000,3342.000000,0.000000,3342.000000,0.000000,3342.000000,0.000000,3342.000000,0.000000,3342.000000,0.000000,3342.000000,0.000000,3342.000000,0.000000,1732.000000,0.000000,1732.000000,0.000000,1732.000000,0.000000,1732.000000,0.000000,1732.000000,0.000000,1732.000000,0.000000,1732.000000,0.000000,1732.000000,0.000000,1732.000000,0.000000,,,,
1093.000000,64636.000000,1093.000000,65342.000000,1093.000000,63340.000000,1093.000000,65486.000000,1093.000000,15028.000000,1093.000000,23.000000,1093.000000,8.000000,1093.000000,-7.000000,1093.000000,994.000000,1093.000000,-58.000000,1094.000000,-228.000000,1094.000000,5.000000,3437.000000,0.000000,3437.000000,0.000000,3437.000000,0.000000,3437.000000,0.000000,3437.000000,0.000000,3437.000000,0.000000,3437.000000,0.000000,3437.000000,0.000000,3437.000000,0.000000,3437.000000,0.000000,3437.000000,0.000000,3437.000000,0.000000,3437.000000,0.000000,3437.000000,0.000000,3437.000000,0.000000,3437.000000,0.000000,1777.000000,0.000000,1777.000000,0.000000,1777.000000,0.000000,1778.000000,0.000000,1778.000000,0.000000,1778.000000,0.000000,1778.000000,0.000000,1778.000000,0.000000,1778.000000,0.000000,,,,
1094.000000,64496.000000,1094.000000,65341.000000,1094.000000,63520.000000,1094.000000,65495.000000,1094.000000,15268.000000,1094.000000,20.000000,1094.000000,-1.000000,1094.000000,4.000000,1094.000000,1008.000000,1094.000000,-89.000000,1094.000000,46.000000,1094.000000,-86.000000,3531.000000,0.000000,3531.000000,0.000000,3531.000000,0.000000,3531.000000,0.000000,3531.000000,0.000000,3531.000000,0.000000,3531.000000,0.000000,3531.000000,0.000000,3531.000000,0.000000,3531.000000,0.000000,3531.000000,0.000000,3531.000000,0.000000,3531.000000,0.000000,3531.000000,0.000000,3531.000000,0.000000,3531.000000,0.000000,1829.000000,0.000000,1829.000000,0.000000,1829.000000,0.000000,1829.000000,0.000000,1829.000000,0.000000,1829.000000,0.000000,1829.000000,0.000000,1829.000000,0.000000,1829.000000,0.000000,,,,
1094.000000,64592.000000,1094.000000,65350.000000,1094.000000,63460.000000,1094.000000,65499.000000,1094.000000,15160.000000,1094.000000,16.000000,1094.000000,5.000000,1094.000000,1.000000,1094.000000,1002.000000,1094.000000,186.000000,1094.000000,168.000000,1094.000000,-208.000000,3627.000000,0.000000,3627.000000,0.000000,3627.000000,0.000000,3627.000000,0.000000,3627.000000,0.000000,3627.000000,0.000000,3627.000000,0.000000,3627.000000,0.000000,3627.000000,0.000000,3627.000000,0.000000,3627.000000,0.000000,3627.000000,0.000000,3627.000000,0.000000,3627.000000,0.000000,3627.000000,0.000000,3627.000000,0.000000,1872.000000,0.000000,1872.000000,0.000000,1872.000000,0.000000,1873.000000,0.000000,1873.000000,0.000000,1873.000000,0.000000,1874.000000,0.000000,1874.000000,0.000000,1874.000000,0.000000,,,,
1094.000000,64592.000000,1094.000000,65350.000000,1094.000000,63460.000000,1094.000000,65499.000000,1094.000000,15160.000000,1094.000000,16.000000,1094.000000,5.000000,1095.000000,1.000000,1095.000000,1002.000000,1095.000000,186.000000,1095.000000,168.000000,1095.000000,-208.000000,3722.000000,0.000000,3722.000000,0.000000,3722.000000,0.000000,3722.000000,0.000000,3722.000000,0.000000,3722.000000,0.000000,3722.000000,0.000000,3722.000000,0.000000,3722.000000,0.000000,3722.000000,0.000000,3722.000000,0.000000,3722.000000,0.000000,3722.000000,0.000000,3722.000000,0.000000,3722.000000,0.000000,3722.000000,0.000000,1922.000000,0.000000,1922.000000,0.000000,1922.000000,0.000000,1922.000000,0.000000,1922.000000,0.000000,1922.000000,0.000000,1922.000000,0.000000,1922.000000,0.000000,1922.000000,0.000000,,,,
1095.000000,64524.000000,1095.000000,65344.000000,1095.000000,63408.000000,1095.000000,65488.000000,1095.000000,15144.000000,1095.000000,21.000000,1095.000000,1.000000,1095.000000,-2.000000,1095.000000,1001.000000,1095.000000,3.000000,1095.000000,-167.000000,1095.000000,-56.000000,3816.000000,0.000000,3816.000000,0.000000,3816.000000,0.000000,3816.000000,0.000000,3816.000000,0.000000,3816.000000,0.000000,3816.000000,0.000000,3816.000000,0.000000,3816.000000,0.000000,3816.000000,0.000000,3816.000000,0.000000,3816.000000,0.000000,3816.000000,0.000000,3816.000000,0.000000,3816.000000,0.000000,3816.000000,0.000000,1967.000000,0.000000,1967.000000,0.000000,1967.000000,0.000000,1969.000000,0.000000,1969.000000,0.000000,1969.000000,0.000000,1969.000000,0.000000,1969.000000,0.000000,1969.000000,0.000000,,,,
1096.000000,64504.000000,1096.000000,65341.000000,1096.000000,63460.000000,1096.000000,65488.000000,1096.000000,15184.000000,1096.000000,24.000000,1096.000000,0.000000,1096.000000,1.000000,1096.000000,1003.000000,1096.000000,-89.000000,1096.000000,-167.000000,1096.000000,36.000000,3912.000000,0.000000,3912.000000,0.000000,3912.000000,0.000000,3912.000000,0.000000,3912.000000,0.000000,3912.000000,0.000000,3912.000000,0.000000,3912.000000,0.000000,3912.000000,0.000000,3912.000000,0.000000,3912.000000,0.000000,3912.000000,0.000000,3912.000000,0.000000,3912.000000,0.000000,3912.000000,0.000000,3912.000000,0.000000,2017.000000,0.000000,2017.000000,0.000000,2017.000000,0.000000,2017.000000,0.000000,2017.000000,0.000000,2017.000000,0.000000,2017.000000,0.000000,2017.000000,0.000000,2017.000000,0.000000,,,,
1096.000000,64496.000000,1096.000000,65340.000000,1096.000000,63468.000000,1096.000000,65489.000000,1096.000000,15276.000000,1096.000000,21.000000,1096.000000,-1.000000,1096.000000,1.000000,1096.000000,1009.000000,1096.000000,-119.000000,1096.000000,-137.000000,1096.000000,-56.000000,4009.000000,0.000000,4009.000000,0.000000,4009.000000,0.000000,4009.000000,0.000000,4009.000000,0.000000,4009.000000,0.000000,4009.000000,0.000000,4009.000000,0.000000,4009.000000,0.000000,4009.000000,0.000000,4009.000000,0.000000,4009.000000,0.000000,4009.000000,0.000000,4009.000000,0.000000,4009.000000,0.000000,4009.000000,0.000000,2064.000000,0.000000,2064.000000,0.000000,2064.000000,0.000000,2064.000000,0.000000,2064.000000,0.000000,2064.000000,0.000000,2065.000000,0.000000,2065.000000,0.000000,2065.000000,0.000000,,,,
1096.000000,64644.000000,1096.000000,65348.000000,1096.000000,63508.000000,1096.000000,65495.000000,1096.000000,15192.000000,1096.000000,29.000000,1096.000000,8.000000,1096.000000,4.000000,1096.000000,1004.000000,1096.000000,125.000000,1096.000000,46.000000,1097.000000,189.000000,4101.000000,0.000000,4101.000000,0.000000,4101.000000,0.000000,4101.000000,0.000000,4101.000000,0.000000,4101.000000,0.000000,4101.000000,0.000000,4101.000000,0.000000,4101.000000,0.000000,4101.000000,0.000000,4101.000000,0.000000,4101.000000,0.000000,4101.000000,0.000000,4101.000000,0.000000,4101.000000,0.000000,4101.000000,0.000000,2112.000000,0.000000,2112.000000,0.000000,2112.000000,0.000000,2112.000000,0.000000,2112.000000,0.000000,2112.000000,0.000000,2112.000000,0.000000,2112.000000,0.000000,2112.000000,0.000000,,,,
1097.000000,64644.000000,1097.000000,65348.000000,1097.000000,63508.000000,1097.000000,65495.000000,1097.000000,15192.000000,1097.000000,29.000000,1097.000000,8.000000,1097.000000,4.000000,1097.000000,1004.000000,1097.000000,125.000000,1097.000000,46.000000,1097.000000,189.000000,4196.000000,0.000000,4196.000000,0.000000,4196.000000,0.000000,4196.000000,0.000000,4196.000000,0.000000,4196.000000,0.000000,4196.000000,0.000000,4196.000000,0.000000,4196.000000,0.000000,4196.000000,0.000000,4196.000000,0.000000,4196.000000,0.000000,4196.000000,0.000000,4196.000000,0.000000,4196.000000,0.000000,4196.000000,0.000000,2157.000000,0.000000,2157.000000,0.000000,2157.000000,0.000000,2158.000000,0.000000,2158.000000,0.000000,2158.000000,0.000000,2158.000000,0.000000,2158.000000,0.000000,2158.000000,0.000000,,,,
1097.000000,64496.000000,1097.000000,65344.000000,1097.000000,63428.000000,1097.000000,65487.000000,1097.000000,14936.000000,1097.000000,22.000000,1097.000000,-1.000000,1097.000000,-1.000000,1097.000000,988.000000,1097.000000,3.000000,1097.000000,-198.000000,1097.000000,-25.000000,4292.000000,0.000000,4292.000000,0.000000,4292.000000,0.000000,4292.000000,0.000000,4292.000000,0.000000,4292.000000,0.000000,4292.000000,0.000000,4292.000000,0.000000,4292.000000,0.000000,4292.000000,0.000000,4292.000000,0.000000,4292.000000,0.000000,4292.000000,0.000000,4292.000000,0.000000,4292.000000,0.000000,4292.000000,0.000000,2210.000000,0.000000,2210.000000,0.000000,2210.000000,0.000000,2210.000000,0.000000,2210.000000,0.000000,2210.000000,0.000000,2210.000000,0.000000,2210.000000,0.000000,2210.000000,0.000000,,,,
1097.000000,64560.000000,1097.000000,65347.000000,1097.000000,63524.000000,1097.000000,65495.000000,1097.000000,15316.000000,1097.000000,22.000000,1097.000000,3.000000,1097.000000,5.000000,1097.000000,1011.000000,1097.000000,95.000000,1097.000000,46.000000,1097.000000,-25.000000,4387.000000,0.000000,4387.000000,0.000000,4387.000000,0.000000,4387.000000,0.000000,4387.000000,0.000000,4387.000000,0.000000,4387.000000,0.000000,4387.000000,0.000000,4387.000000,0.000000,4387.000000,0.000000,4387.000000,0.000000,4387.000000,0.000000,4387.000000,0.000000,4387.000000,0.000000,4387.000000,0.000000,4387.000000,0.000000,2251.000000,0.000000,2251.000000,0.000000,2251.000000,0.000000,2253.000000,0.000000,2253.000000,0.000000,2253.000000,0.000000,2253.000000,0.000000,2253.000000,0.000000,2253.000000,0.000000,,,,
1097.000000,64564.000000,1097.000000,65354.000000,1097.000000,63496.000000,1097.000000,65491.000000,1098.000000,15084.000000,1098.000000,22.000000,1098.000000,3.000000,1098.000000,3.000000,1098.000000,997.000000,1098.000000,308.000000,1098.000000,-76.000000,1098.000000,-25.000000,4482.000000,0.000000,4482.000000,0.000000,4482.000000,0.000000,4482.000000,0.000000,4482.000000,0.000000,4482.000000,0.000000,4482.000000,0.000000,4482.000000,0.000000,4482.000000,0.000000,4482.000000,0.000000,4482.000000,0.000000,4482.000000,0.000000,4482.000000,0.000000,4482.000000,0.000000,4482.000000,0.000000,4482.000000,0.000000,2305.000000,0.000000,2305.000000,0.000000,2305.000000,0.000000,2305.000000,0.000000,2305.000000,0.000000,2305.000000,0.000000,2305.000000,0.000000,2305.000000,0.000000,2305.000000,0.000000,,,,
1098.000000,64564.000000,1098.000000,65354.000000,1098.000000,63496.000000,1098.000000,65491.000000,1098.000000,15084.000000,1098.000000,22.000000,1098.000000,3.000000,1098.000000,3.000000,1098.000000,997.000000,1098.000000,308.000000,1098.000000,-76.000000,1099.000000,-25.000000,4577.000000,0.000000,4577.000000,0.000000,4577.000000,0.000000,4577.000000,0.000000,4577.000000,0.000000,4577.000000,0.000000,4577.000000,0.000000,4577.000000,0.000000,4577.000000,0.000000,4577.000000,0.000000,4577.000000,0.000000,4577.000000,0.000000,4577.000000,0.000000,4577.000000,0.000000,4577.000000,0.000000,4577.000000,0.000000,2347.000000,0.000000,2347.000000,0.000000,2347.000000,0.000000,2349.000000,0.000000,2349.000000,0.000000,2349.000000,0.000000,2349.000000,0.000000,2349.000000,0.000000,2349.000000,0.000000,,,,
1099.000000,64644.000000,1099.000000,65344.000000,1099.000000,63476.000000,1099.000000,65489.000000,1099.000000,15212.000000,1099.000000,23.000000,1099.000000,8.000000,1099.000000,2.000000,1099.000000,1005.000000,1099.000000,3.000000,1099.000000,-137.000000,1099.000000,5.000000,4671.000000,0.000000,4671.000000,0.000000,4671.000000,0.000000,4671.000000,0.000000,4672.000000,0.000000,4672.000000,0.000000,4672.000000,0.000000,4672.000000,0.000000,4672.000000,0.000000,4672.000000,0.000000,4672.000000,0.000000,4672.000000,0.000000,4672.000000,0.000000,4672.000000,0.000000,4672.000000,0.000000,4672.000000,0.000000,2400.000000,0.000000,2400.000000,0.000000,2400.000000,0.000000,2400.000000,0.000000,2400.000000,0.000000,2400.000000,0.000000,2400.000000,0.000000,2400.000000,0.000000,2400.000000,0.000000,,,,
1099.000000,64580.000000,1099.000000,65340.000000,1099.000000,63368.000000,1099.000000,65497.000000,1099.000000,15268.000000,1099.000000,17.000000,1099.000000,4.000000,1099.000000,-5.000000,1099.000000,1008.000000,1099.000000,-119.000000,1099.000000,107.000000,1099.000000,-178.000000,4767.000000,0.000000,4767.000000,0.000000,4767.000000,0.000000,4767.000000,0.000000,4767.000000,0.000000,4767.000000,0.000000,4767.000000,0.000000,4767.000000,0.000000,4767.000000,0.000000,4767.000000,0.000000,4767.000000,0.000000,4767.000000,0.000000,4767.000000,0.000000,4767.000000,0.000000,4767.000000,0.000000,4767.000000,0.000000,2442.000000,0.000000,2442.000000,0.000000,2442.000000,0.000000,2444.000000,0.000000,2444.000000,0.000000,2444.000000,0.000000,2444.000000,0.000000,2444.000000,0.000000,2444.000000,0.000000,,,,
1099.000000,64500.000000,1099.000000,65349.000000,1100.000000,63460.000000,1100.000000,65498.000000,1100.000000,15272.000000,1100.000000,21.000000,1100.000000,-1.000000,1100.000000,1.000000,1100.000000,1009.000000,1100.000000,156.000000,1100.000000,138.000000,1100.000000,-56.000000,4861.000000,0.000000,4861.000000,0.000000,4861.000000,0.000000,4861.000000,0.000000,4861.000000,0.000000,4861.000000,0.000000,4861.000000,0.000000,4861.000000,0.000000,4861.000000,0.000000,4861.000000,0.000000,4861.000000,0.000000,4861.000000,0.000000,4861.000000,0.000000,4861.000000,0.000000,4861.000000,0.000000,4861.000000,0.000000,2493.000000,0.000000,2493.000000,0.000000,2493.000000,0.000000,2493.000000,0.000000,2493.000000,0.000000,2493.000000,0.000000,2493.000000,0.000000,2493.000000,0.000000,2493.000000,0.000000,,,,
1100.000000,64500.000000,1100.000000,65349.000000,1100.000000,63460.000000,1100.000000,65498.000000,1100.000000,15272.000000,1100.000000,21.000000,1100.000000,-1.000000,1100.000000,1.000000,1100.000000,1009.000000,1100.000000,156.000000,1100.000000,138.000000,1100.000000,-56.000000,4956.000000,0.000000,4956.000000,0.000000,4956.000000,0.000000,4956.000000,0.000000,4956.000000,0.000000,4956.000000,0.000000,4956.000000,0.000000,4956.000000,0.000000,4956.000000,0.000000,4956.000000,0.000000,4956.000000,0.000000,4956.000000,0.000000,4956.000000,0.000000,4956.000000,0.000000,4956.000000,0.000000,4956.000000,0.000000,2541.000000,0.000000,2541.000000,0.000000,2541.000000,0.000000,2541.000000,0.000000,2541.000000,0.000000,2541.000000,0.000000,2541.000000,0.000000,2541.000000,0.000000,2541.000000,0.000000,,,,
1100.000000,64564.000000,1100.000000,65343.000000,1100.000000,63484.000000,1100.000000,65495.000000,1100.000000,14960.000000,1100.000000,28.000000,1100.000000,3.000000,1100.000000,2.000000,1100.000000,990.000000,1100.000000,-28.000000,1100.000000,46.000000,1100.000000,158.000000,5051.000000,0.000000,5051.000000,0.000000,5051.000000,0.000000,5051.000000,0.000000,5052.000000,0.000000,5052.000000,0.000000,5052.000000,0.000000,5052.000000,0.000000,5052.000000,0.000000,5052.000000,0.000000,5052.000000,0.000000,5052.000000,0.000000,5052.000000,0.000000,5052.000000,0.000000,5052.000000,0.000000,5052.000000,0.000000,2587.000000,0.000000,2587.000000,0.000000,2587.000000,0.000000,2587.000000,0.000000,2587.000000,0.000000,2587.000000,0.000000,2587.000000,0.000000,2587.000000,0.000000,2587.000000,0.000000,,,,
1100.000000,64480.000000,1100.000000,65340.000000,1100.000000,63400.000000,1100.000000,65496.000000,1100.000000,15168.000000,1100.000000,23.000000,1100.000000,-2.000000,1100.000000,-3.000000,1100.000000,1002.000000,1100.000000,-119.000000,1101.000000,77.000000,1101.000000,5.000000,5146.000000,0.000000,5146.000000,0.000000,5146.000000,0.000000,5146.000000,0.000000,5146.000000,0.000000,5146.000000,0.000000,5146.000000,0.000000,5146.000000,0.000000,5146.000000,0.000000,5146.000000,0.000000,5146.000000,0.000000,5146.000000,0.000000,5146.000000,0.000000,5146.000000,0.000000,5146.000000,0.000000,5146.000000,0.000000,2632.000000,0.000000,2632.000000,0.000000,2632.000000,0.000000,2633.000000,0.000000,2633.000000,0.000000,2633.000000,0.000000,2633.000000,0.000000,2633.000000,0.000000,2633.000000,0.000000,,,,
1101.000000,64560.000000,1101.000000,65348.000000,1101.000000,63508.000000,1101.000000,65490.000000,1101.000000,15280.000000,1101.000000,23.000000,1101.000000,3.000000,1101.000000,4.000000,1101.000000,1009.000000,1101.000000,125.000000,1101.000000,-106.000000,1101.000000,5.000000,5244.000000,0.000000,5244.000000,0.000000,5244.000000,0.000000,5244.000000,0.000000,5244.000000,0.000000,5244.000000,0.000000,5244.000000,0.000000,5244.000000,0.000000,5244.000000,0.000000,5244.000000,0.000000,5244.000000,0.000000,5244.000000,0.000000,5244.000000,0.000000,5244.000000,0.000000,5244.000000,0.000000,5244.000000,0.000000,2684.000000,0.000000,2684.000000,0.000000,2684.000000,0.000000,2684.000000,0.000000,2684.000000,0.000000,2684.000000,0.000000,2684.000000,0.000000,2684.000000,0.000000,2684.000000,0.000000,,,,
1101.000000,64560.000000,1101.000000,65348.000000,1101.000000,63508.000000,1101.000000,65490.000000,1101.000000,15280.000000,1101.000000,23.000000,1101.000000,3.000000,1101.000000,4.000000,1102.000000,1009.000000,1102.000000,125.000000,1102.000000,-106.000000,1102.000000,5.000000,5337.000000,0.000000,5337.000000,0.000000,5337.000000,0.000000,5337.000000,0.000000,5337.000000,0.000000,5337.000000,0.000000,5337.000000,0.000000,5337.000000,0.000000,5337.000000,0.000000,5337.000000,0.000000,5337.000000,0.000000,5337.000000,0.000000,5337.000000,0.000000,5337.000000,0.000000,5337.000000,0.000000,5337.000000,0.000000,2727.000000,0.000000,2727.000000,0.000000,2727.000000,0.000000,2729.000000,0.000000,2729.000000,0.000000,2729.000000,0.000000,2729.000000,0.000000,2729.000000,0.000000,2729.000000,0.000000,,,,
1102.000000,64532.000000,1102.000000,65349.000000,1102.000000,63352.000000,1102.000000,65501.000000,1102.000000,15024.000000,1102.000000,23.000000,1102.000000,1.000000,1102.000000,-6.000000,1102.000000,994.000000,1102.000000,156.000000,1102.000000,229.000000,1102.000000,5.000000,5431.000000,0.000000,5431.000000,0.000000,5431.000000,0.000000,5431.000000,0.000000,5431.000000,0.000000,5431.000000,0.000000,5431.000000,0.000000,5431.000000,0.000000,5431.000000,0.000000,5431.000000,0.000000,5431.000000,0.000000,5431.000000,0.000000,5431.000000,0.000000,5431.000000,0.000000,5431.000000,0.000000,5431.000000,0.000000,2779.000000,0.000000,2779.000000,0.000000,2779.000000,0.000000,2779.000000,0.000000,2779.000000,0.000000,2779.000000,0.000000,2779.000000,0.000000,2779.000000,0.000000,2779.000000,0.000000,,,,
1102.000000,64592.000000,1102.000000,65344.000000,1102.000000,63428.000000,1102.000000,65497.000000,1102.000000,15212.000000,1102.000000,18.000000,1102.000000,5.000000,1102.000000,-1.000000,1102.000000,1005.000000,1102.000000,3.000000,1102.000000,107.000000,1102.000000,-147.000000,5526.000000,0.000000,5526.000000,0.000000,5526.000000,0.000000,5526.000000,0.000000,5526.000000,0.000000,5526.000000,0.000000,5526.000000,0.000000,5526.000000,0.000000,5526.000000,0.000000,5526.000000,0.000000,5526.000000,0.000000,5526.000000,0.000000,5526.000000,0.000000,5526.000000,0.000000,5526.000000,0.000000,5526.000000,0.000000,2824.000000,0.000000,2824.000000,0.000000,2824.000000,0.000000,2824.000000,0.000000,2824.000000,0.000000,2824.000000,0.000000,2824.000000,0.000000,2824.000000,0.000000,2824.000000,0.000000,,,,
1102.000000,64484.000000,1102.000000,65348.000000,1103.000000,63480.000000,1103.000000,65496.000000,1103.000000,15240.000000,1103.000000,25.000000,1103.000000,-2.000000,1103.000000,2.000000,1103.000000,1007.000000,1103.000000,125.000000,1103.000000,77.000000,1103.000000,66.000000,5622.000000,0.000000,5622.000000,0.000000,5622.000000,0.000000,5622.000000,0.000000,5622.000000,0.000000,5622.000000,0.000000,5622.000000,0.000000,5622.000000,0.000000,5622.000000,0.000000,5622.000000,0.000000,5622.000000,0.000000,5622.000000,0.000000,5622.000000,0.000000,5622.000000,0.000000,5622.000000,0.000000,5622.000000,0.000000,2872.000000,0.000000,2872.000000,0.000000,2872.000000,0.000000,2872.000000,0.000000,2872.000000,0.000000,2872.000000,0.000000,2873.000000,0.000000,2873.000000,0.000000,2873.000000,0.000000,,,,
1103.000000,64576.000000,1103.000000,65347.000000,1103.000000,63392.000000,1103.000000,65490.000000,1103.000000,15256.000000,1103.000000,22.000000,1103.000000,4.000000,1103.000000,-3.000000,1103.000000,1008.000000,1103.000000,95.000000,1103.000000,-106.000000,1103.000000,-25.000000,5717.000000,0.000000,5717.000000,0.000000,5717.000000,0.000000,5717.000000,0.000000,5717.000000,0.000000,5717.000000,0.000000,5717.000000,0.000000,5717.000000,0.000000,5717.000000,0.000000,5717.000000,0.000000,5717.000000,0.000000,5717.000000,0.000000,5717.000000,0.000000,5717.000000,0.000000,5717.000000,0.000000,5717.000000,0.000000,2919.000000,0.000000,2919.000000,0.000000,2919.000000,0.000000,2919.000000,0.000000,2919.000000,0.000000,2919.000000,0.000000,2919.000000,0.000000,2919.000000,0.000000,2919.000000,0.000000,,,,
1103.000000,64576.000000,1103.000000,65347.000000,1104.000000,63392.000000,1104.000000,65490.000000,1104.000000,15256.000000,1104.000000,22.000000,1104.000000,4.000000,1104.000000,-3.000000,1104.000000,1008.000000,1104.000000,95.000000,1104.000000,-106.000000,1104.000000,-25.000000,5811.000000,0.000000,5811.000000,0.000000,5811.000000,0.000000,5811.000000,0.000000,5811.000000,0.000000,5811.000000,0.000000,5811.000000,0.000000,5811.000000,0.000000,5811.000000,0.000000,5811.000000,0.000000,5811.000000,0.000000,5811.000000,0.000000,5811.000000,0.000000,5811.000000,0.000000,5811.000000,0.000000,5811.000000,0.000000,2967.000000,0.000000,2967.000000,0.000000,2967.000000,0.000000,2967.000000,0.000000,2967.000000,0.000000,2967.000000,0.000000,2967.000000,0.000000,2967.000000,0.000000,2967.000000,0.000000,,,,
1104.000000,64576.000000,1104.000000,65342.000000,1104.000000,63296.000000,1104.000000,65495.000000,1104.000000,15256.000000,1104.000000,24.000000,1104.000000,4.000000,1104.000000,-9.000000,1104.000000,1008.000000,1104.000000,-58.000000,1104.000000,46.000000,1104.000000,36.000000,5907.000000,0.000000,5907.000000,0.000000,5907.000000,0.000000,5907.000000,0.000000,5907.000000,0.000000,5907.000000,0.000000,5907.000000,0.000000,5907.000000,0.000000,5907.000000,0.000000,5907.000000,0.000000,5907.000000,0.000000,5907.000000,0.000000,5907.000000,0.000000,5907.000000,0.000000,5907.000000,0.000000,5907.000000,0.000000,3016.000000,0.000000,3016.000000,0.000000,3016.000000,0.000000,3016.000000,0.000000,3016.000000,0.000000,3016.000000,0.000000,3016.000000,0.000000,3016.000000,0.000000,3016.000000,0.000000,,,,
1104.000000,64536.000000,1104.000000,65344.000000,1104.000000,63432.000000,1104.000000,65491.000000,1104.000000,15444.000000,1104.000000,19.000000,1104.000000,1.000000,1104.000000,-1.000000,1104.000000,1019.000000,1104.000000,3.000000,1105.000000,-76.000000,1105.000000,-117.000000,6001.000000,0.000000,6001.000000,0.000000,6001.000000,0.000000,6001.000000,0.000000,6001.000000,0.000000,6001.000000,0.000000,6001.000000,0.000000,6001.000000,0.000000,6001.000000,0.000000,6001.000000,0.000000,6001.000000,0.000000,6001.000000,0.000000,6001.000000,0.000000,6001.000000,0.000000,6001.000000,0.000000,6001.000000,0.000000,3064.000000,0.000000,3064.000000,0.000000,3064.000000,0.000000,3064.000000,0.000000,3064.000000,0.000000,3064.000000,0.000000,3064.000000,0.000000,3064.000000,0.000000,3064.000000,0.000000,,,,
1105.000000,64700.000000,1105.000000,65347.000000,1105.000000,63432.000000,1105.000000,65497.000000,1105.000000,15204.000000,1105.000000,27.000000,1105.000000,11.000000,1105.000000,-1.000000,1105.000000,1005.000000,1105.000000,95.000000,1105.000000,107.000000,1105.000000,127.000000,6099.000000,0.000000,6099.000000,0.000000,6099.000000,0.000000,6099.000000,0.000000,6099.000000,0.000000,6099.000000,0.000000,6099.000000,0.000000,6099.000000,0.000000,6099.000000,0.000000,6099.000000,0.000000,6099.000000,0.000000,6099.000000,0.000000,6099.000000,0.000000,6099.000000,0.000000,6099.000000,0.000000,6099.000000,0.000000,3108.000000,0.000000,3108.000000,0.000000,3108.000000,0.000000,3108.000000,0.000000,3108.000000,0.000000,3108.000000,0.000000,3108.000000,0.000000,3108.000000,0.000000,3108.000000,0.000000,,,,
1105.000000,64700.000000,1105.000000,65347.000000,1105.000000,63432.000000,1105.000000,65497.000000,1105.000000,15204.000000,1105.000000,27.000000,1105.000000,11.000000,1105.000000,-1.000000,1105.000000,1005.000000,1105.000000,95.000000,1105.000000,107.000000,1105.000000,127.000000,,,,,,,,,,,,,,,,,,,,,,,,,,,,,,,,,3157.000000,0.000000,3157.000000,0.000000,3157.000000,0.000000,3157.000000,0.000000,3157.000000,0.000000,3157.000000,0.000000,3157.000000,0.000000,3157.000000,0.000000,3157.000000,0.000000,,,,
1105.000000,64504.000000,1105.000000,65340.000000,1105.000000,63420.000000,1105.000000,65487.000000,1106.000000,15176.000000,1106.000000,25.000000,1106.000000,0.000000,1106.000000,-2.000000,1106.000000,1003.000000,1106.000000,-119.000000,1106.000000,-198.000000,1106.000000,66.000000,,,,,,,,,,,,,,,,,,,,,,,,,,,,,,,,,3204.000000,0.000000,3204.000000,0.000000,3204.000000,0.000000,3204.000000,0.000000,3204.000000,0.000000,3204.000000,0.000000,3204.000000,0.000000,3204.000000,0.000000,3204.000000,0.000000,,,,
1106.000000,64520.000000,1106.000000,65341.000000,1106.000000,63416.000000,1106.000000,65492.000000,1106.000000,15268.000000,1106.000000,24.000000,1106.000000,0.000000,1106.000000,-2.000000,1106.000000,1008.000000,1106.000000,-89.000000,1106.000000,-45.000000,1106.000000,36.000000,,,,,,,,,,,,,,,,,,,,,,,,,,,,,,,,,3253.000000,0.000000,3253.000000,0.000000,3253.000000,0.000000,3253.000000,0.000000,3253.000000,0.000000,3253.000000,0.000000,3253.000000,0.000000,3253.000000,0.000000,3253.000000,0.000000,,,,
1106.000000,64532.000000,1106.000000,65348.000000,1106.000000,63500.000000,1106.000000,65492.000000,1106.000000,15112.000000,1106.000000,22.000000,1107.000000,1.000000,1107.000000,3.000000,1107.000000,999.000000,1107.000000,125.000000,1107.000000,-45.000000,1107.000000,-25.000000,,,,,,,,,,,,,,,,,,,,,,,,,,,,,,,,,3299.000000,0.000000,3299.000000,0.000000,3299.000000,0.000000,3299.000000,0.000000,3299.000000,0.000000,3299.000000,0.000000,3299.000000,0.000000,3299.000000,0.000000,3299.000000,0.000000,,,,
1107.000000,64532.000000,1107.000000,65348.000000,1107.000000,63500.000000,1107.000000,65492.000000,1107.000000,15112.000000,1107.000000,22.000000,1107.000000,1.000000,1107.000000,3.000000,1107.000000,999.000000,1107.000000,125.000000,1107.000000,-45.000000,1107.000000,-25.000000,,,,,,,,,,,,,,,,,,,,,,,,,,,,,,,,,3348.000000,0.000000,3348.000000,0.000000,3348.000000,0.000000,3348.000000,0.000000,3348.000000,0.000000,3348.000000,0.000000,3348.000000,0.000000,3348.000000,0.000000,3348.000000,0.000000,,,,
1107.000000,64616.000000,1107.000000,65346.000000,1108.000000,63504.000000,1108.000000,65496.000000,1108.000000,15028.000000,1108.000000,24.000000,1108.000000,6.000000,1108.000000,3.000000,1108.000000,994.000000,1108.000000,64.000000,1108.000000,77.000000,1108.000000,36.000000,,,,,,,,,,,,,,,,,,,,,,,,,,,,,,,,,3392.000000,0.000000,3392.000000,0.000000,3392.000000,0.000000,3393.000000,0.000000,3393.000000,0.000000,3393.000000,0.000000,3393.000000,0.000000,3393.000000,0.000000,3393.000000,0.000000,,,,
1108.000000,64588.000000,1108.000000,65345.000000,1108.000000,63448.000000,1108.000000,65490.000000,1108.000000,15308.000000,1108.000000,25.000000,1108.000000,5.000000,1108.000000,0.000000,1108.000000,1011.000000,1108.000000,33.000000,1108.000000,-106.000000,1108.000000,66.000000,,,,,,,,,,,,,,,,,,,,,,,,,,,,,,,,,3443.000000,0.000000,3443.000000,0.000000,3443.000000,0.000000,3443.000000,0.000000,3443.000000,0.000000,3443.000000,0.000000,3443.000000,0.000000,3443.000000,0.000000,3443.000000,0.000000,,,,
1108.000000,64568.000000,1108.000000,65347.000000,1108.000000,63428.000000,1108.000000,65498.000000,1108.000000,15264.000000,1108.000000,22.000000,1108.000000,3.000000,1108.000000,-1.000000,1108.000000,1008.000000,1109.000000,95.000000,1109.000000,138.000000,1109.000000,-25.000000,,,,,,,,,,,,,,,,,,,,,,,,,,,,,,,,,3489.000000,0.000000,3489.000000,0.000000,3489.000000,0.000000,3489.000000,0.000000,3489.000000,0.000000,3489.000000,0.000000,3489.000000,0.000000,3489.000000,0.000000,3489.000000,0.000000,,,,
1109.000000,64568.000000,1109.000000,65347.000000,1109.000000,63428.000000,1109.000000,65498.000000,1109.000000,15264.000000,1109.000000,22.000000,1109.000000,3.000000,1109.000000,-1.000000,1109.000000,1008.000000,1109.000000,95.000000,1109.000000,138.000000,1109.000000,-25.000000,,,,,,,,,,,,,,,,,,,,,,,,,,,,,,,,,3539.000000,0.000000,3539.000000,0.000000,3539.000000,0.000000,3539.000000,0.000000,3539.000000,0.000000,3539.000000,0.000000,3539.000000,0.000000,3539.000000,0.000000,3539.000000,0.000000,,,,
1109.000000,64628.000000,1109.000000,65346.000000,1109.000000,63328.000000,1109.000000,65492.000000,1109.000000,15112.000000,1109.000000,21.000000,1109.000000,7.000000,1109.000000,-7.000000,1109.000000,999.000000,1109.000000,64.000000,1109.000000,-45.000000,1109.000000,-56.000000,,,,,,,,,,,,,,,,,,,,,,,,,,,,,,,,,3581.000000,0.000000,3581.000000,0.000000,3581.000000,0.000000,3583.000000,0.000000,3583.000000,0.000000,3583.000000,0.000000,3583.000000,0.000000,3583.000000,0.000000,3583.000000,0.000000,,,,
1109.000000,64620.000000,1109.000000,65340.000000,1109.000000,63388.000000,1109.000000,65492.000000,1110.000000,15236.000000,1110.000000,20.000000,1110.000000,7.000000,1110.000000,-4.000000,1110.000000,1006.000000,1110.000000,-119.000000,1110.000000,-45.000000,1110.000000,-86.000000,,,,,,,,,,,,,,,,,,,,,,,,,,,,,,,,,3634.000000,0.000000,3634.000000,0.000000,3634.000000,0.000000,3634.000000,0.000000,3634.000000,0.000000,3634.000000,0.000000,3634.000000,0.000000,3634.000000,0.000000,3634.000000,0.000000,,,,
