Time (ms),GUI.SCRN_NO,GUI.RENC_CLK,GUI.RENC_ACLK,GUI.RENC_SW,Time (ms),LED_CNTRL.LED_OVRRD,LED_CNTRL.XLED_PWM_Mode,LED_CNTRL.YLED_PWM_Mode,LED_CNTRL.ZLED_PWM_Mode,LED_CNTRL.XLED_state,LED_CNTRL.YLED_state,LED_CNTRL.ZLED_state,LED_CNTRL.TLED_OVRRD,LED_CNTRL.TLED_mode,LED_CNTRL.XLED_Brightness,LED_CNTRL.YLED_Brightness,LED_CNTRL.ZLED_Brightness,Time (ms),IMU_X_Raw.XACCEL_raw,IMU_X_Raw.XGYRO_raw,Time (ms),IMU_Y_Raw.YACCEL_raw,IMU_Y_Raw.YGYRO_raw,Time (ms),IMU_Z_Raw.ZACCEL_raw,IMU_Z_Raw.ZGYRO_raw,Time (ms),IMU_Temp.IMU_Temp_Raw,IMU_Temp.IMU_Temp_Processed,Time (ms),IMU_XACCEL_Processed.IMU_XACCEL_Processed,Time (ms),IMU_YACCEL_Processed.IMU_YACCEL_Processed,Time (ms),IMU_ZACCEL_Processed.IMU_ZACCEL_Processed,Time (ms),IMU_XGYRO_Processed.IMU_XGYRO_Processed,Time (ms),IMU_YGYRO_Processed.IMU_YGYRO_Processed,Time (ms),IMU_ZGYRO_Processed.IMU_ZGYRO_Processed,Time (ms),Roll.Roll_Accel,Roll.Roll_Gyro,Roll.Roll_CF,Time (ms),Pitch.Pitch_Accel,Pitch.Pitch_Gyro,Pitch.Pitch_CF,Time (ms),Yaw.Yaw_Accel,Yaw.Yaw_Gyro,Yaw.Yaw_CF
22.000000,0.000000,0.000000,0.000000,0.000000,26.000000,0.000000,0.000000,0.000000,0.000000,0.000000,0.000000,0.000000,0.000000,0.000000,0.000000,0.000000,0.000000,0.000000,64124.000000,65344.000000,7.000000,92.000000,65506.000000,7.000000,15116.000000,22.000000,129.000000,0.000000,0.000000,7.000000,7.000000,7.000000,0.000000,11.000000,994.000000,11.000000,-103.000000,11.000000,333.000000,11.000000,-22.000000,33.000000,0.000000,0.000000,0.000000,33.000000,0.000000,0.000000,0.000000,33.000000,0.000000,0.000000,0.000000
116.000000,0.000000,0.000000,0.000000,0.000000,121.000000,0.000000,0.000000,0.000000,0.000000,0.000000,0.000000,0.000000,0.000000,0.000000,0.000000,0.000000,0.000000,11.000000,64124.000000,65344.000000,16.000000,92.000000,65506.000000,17.000000,15116.000000,22.000000,363.000000,0.000000,0.000000,17.000000,7.000000,17.000000,0.000000,17.000000,994.000000,22.000000,-103.000000,22.000000,333.000000,22.000000,-22.000000,78.000000,0.000000,0.000000,0.000000,78.000000,0.000000,0.000000,0.000000,78.000000,0.000000,0.000000,0.000000
210.000000,0.000000,0.000000,0.000000,0.000000,217.000000,0.000000,0.000000,0.000000,0.000000,0.000000,0.000000,0.000000,0.000000,0.000000,0.000000,0.000000,0.000000,26.000000,63996.000000,65346.000000,26.000000,92.000000,65507.000000,26.000000,15132.000000,21.000000,602.000000,0.000000,0.000000,26.000000,0.000000,29.000000,0.000000,29.000000,995.000000,29.000000,-42.000000,29.000000,363.000000,29.000000,-53.000000,129.000000,0.000000,0.000000,0.000000,129.000000,0.000000,0.000000,0.000000,129.000000,0.000000,0.000000,0.000000
307.000000,0.000000,0.000000,0.000000,0.000000,311.000000,0.000000,0.000000,0.000000,0.000000,0.000000,0.000000,0.000000,0.000000,0.000000,0.000000,0.000000,0.000000,33.000000,64024.000000,65344.000000,35.000000,64.000000,65483.000000,35.000000,15300.000000,27.000000,838.000000,0.000000,0.000000,35.000000,1.000000,35.000000,-2.000000,35.000000,1005.000000,40.000000,-103.000000,40.000000,-369.000000,40.000000,130.000000,171.000000,0.000000,0.000000,0.000000,171.000000,0.000000,0.000000,0.000000,173.000000,0.000000,0.000000,0.000000
402.000000,0.000000,0.000000,0.000000,0.000000,407.000000,0.000000,0.000000,0.000000,0.000000,0.000000,0.000000,0.000000,0.000000,0.000000,0.000000,0.000000,0.000000,40.000000,64052.000000,65353.000000,45.000000,120.000000,65496.000000,45.000000,15236.000000,21.000000,1079.000000,0.000000,0.000000,45.000000,3.000000,45.000000,2.000000,45.000000,1001.000000,50.000000,172.000000,50.000000,28.000000,50.000000,-53.000000,224.000000,0.000000,0.000000,0.000000,224.000000,0.000000,0.000000,0.000000,224.000000,0.000000,0.000000,0.000000
495.000000,0.000000,0.000000,0.000000,0.000000,501.000000,0.000000,0.000000,0.000000,0.000000,0.000000,0.000000,0.000000,0.000000,0.000000,0.000000,0.000000,0.000000,50.000000,64052.000000,65344.000000,54.000000,65528.000000,65494.000000,54.000000,15260.000000,20.000000,1312.000000,0.000000,0.000000,54.000000,3.000000,54.000000,-5.000000,54.000000,1003.000000,57.000000,-103.000000,57.000000,-33.000000,57.000000,-83.000000,267.000000,0.000000,0.000000,0.000000,267.000000,0.000000,0.000000,0.000000,268.000000,0.000000,0.000000,0.000000
590.000000,0.000000,0.000000,0.000000,0.000000,596.000000,0.000000,0.000000,0.000000,0.000000,0.000000,0.000000,0.000000,0.000000,0.000000,0.000000,0.000000,0.000000,57.000000,64052.000000,65344.000000,64.000000,65528.000000,65494.000000,64.000000,15260.000000,20.000000,1553.000000,0.000000,0.000000,64.000000,3.000000,64.000000,-5.000000,64.000000,1003.000000,69.000000,-103.000000,69.000000,-33.000000,69.000000,-83.000000,317.000000,0.000000,0.000000,0.000000,317.000000,0.000000,0.000000,0.000000,317.000000,0.000000,0.000000,0.000000
685.000000,0.000000,0.000000,0.000000,0.000000,691.000000,0.000000,0.000000,0.000000,0.000000,0.000000,0.000000,0.000000,0.000000,0.000000,0.000000,0.000000,0.000000,69.000000,64092.000000,65341.000000,73.000000,200.000000,65499.000000,73.000000,15192.000000,24.000000,1788.000000,0.000000,0.000000,73.000000,5.000000,73.000000,7.000000,73.000000,999.000000,78.000000,-195.000000,78.000000,119.000000,78.000000,39.000000,363.000000,0.000000,0.000000,0.000000,363.000000,0.000000,0.000000,0.000000,363.000000,0.000000,0.000000,0.000000
781.000000,0.000000,0.000000,0.000000,0.000000,786.000000,0.000000,0.000000,0.000000,0.000000,0.000000,0.000000,0.000000,0.000000,0.000000,0.000000,0.000000,0.000000,78.000000,64004.000000,65347.000000,83.000000,100.000000,65490.000000,83.000000,15396.000000,20.000000,2028.000000,0.000000,0.000000,83.000000,0.000000,84.000000,1.000000,84.000000,1011.000000,88.000000,-11.000000,88.000000,-155.000000,88.000000,-83.000000,412.000000,0.000000,0.000000,0.000000,412.000000,0.000000,0.000000,0.000000,412.000000,0.000000,0.000000,0.000000
875.000000,0.000000,0.000000,0.000000,0.000000,881.000000,0.000000,0.000000,0.000000,0.000000,0.000000,0.000000,0.000000,0.000000,0.000000,0.000000,0.000000,0.000000,88.000000,64052.000000,65346.000000,93.000000,184.000000,65491.000000,93.000000,15308.000000,22.000000,2261.000000,0.000000,0.000000,93.000000,3.000000,93.000000,6.000000,93.000000,1006.000000,95.000000,-42.000000,96.000000,-125.000000,96.000000,-22.000000,457.000000,0.000000,0.000000,0.000000,457.000000,0.000000,0.000000,0.000000,458.000000,0.000000,0.000000,0.000000
970.000000,0.000000,0.000000,0.000000,0.000000,976.000000,0.000000,0.000000,0.000000,0.000000,0.000000,0.000000,0.000000,0.000000,0.000000,0.000000,0.000000,0.000000,96.000000,64052.000000,65346.000000,102.000000,184.000000,65491.000000,102.000000,15308.000000,22.000000,2504.000000,0.000000,0.000000,102.000000,3.000000,102.000000,6.000000,102.000000,1006.000000,106.000000,-42.000000,106.000000,-125.000000,106.000000,-22.000000,509.000000,0.000000,0.000000,0.000000,509.000000,0.000000,0.000000,0.000000,509.000000,0.000000,0.000000,0.000000
1065.000000,0.000000,0.000000,0.000000,0.000000,1071.000000,0.000000,0.000000,0.000000,0.000000,0.000000,0.000000,0.000000,0.000000,0.000000,0.000000,0.000000,0.000000,106.000000,64132.000000,65345.000000,112.000000,128.000000,65489.000000,112.000000,15116.000000,27.000000,2739.000000,0.000000,0.000000,112.000000,8.000000,112.000000,2.000000,112.000000,994.000000,116.000000,-73.000000,116.000000,-186.000000,116.000000,130.000000,550.000000,0.000000,0.000000,0.000000,550.000000,0.000000,0.000000,0.000000,555.000000,0.000000,0.000000,0.000000
1160.000000,0.000000,0.000000,0.000000,0.000000,1166.000000,0.000000,0.000000,0.000000,0.000000,0.000000,0.000000,0.000000,0.000000,0.000000,0.000000,0.000000,0.000000,121.000000,64004.000000,65346.000000,121.000000,164.000000,65495.000000,121.000000,15320.000000,19.000000,2979.000000,0.000000,0.000000,121.000000,0.000000,124.000000,5.000000,124.000000,1007.000000,124.000000,-42.000000,124.000000,-3.000000,124.000000,-114.000000,602.000000,0.000000,0.000000,0.000000,602.000000,0.000000,0.000000,0.000000,602.000000,0.000000,0.000000,0.000000
1256.000000,0.000000,0.000000,0.000000,0.000000,1261.000000,0.000000,0.000000,0.000000,0.000000,0.000000,0.000000,0.000000,0.000000,0.000000,0.000000,0.000000,0.000000,129.000000,64144.000000,65342.000000,131.000000,56.000000,65491.000000,131.000000,15160.000000,18.000000,3211.000000,0.000000,0.000000,131.000000,9.000000,131.000000,-2.000000,131.000000,997.000000,133.000000,-164.000000,134.000000,-125.000000,134.000000,-144.000000,647.000000,0.000000,0.000000,0.000000,647.000000,0.000000,0.000000,0.000000,648.000000,0.000000,0.000000,0.000000
1352.000000,0.000000,0.000000,0.000000,0.000000,1356.000000,0.000000,0.000000,0.000000,0.000000,0.000000,0.000000,0.000000,0.000000,0.000000,0.000000,0.000000,0.000000,134.000000,64144.000000,65342.000000,142.000000,56.000000,65491.000000,142.000000,15160.000000,18.000000,3454.000000,0.000000,0.000000,142.000000,9.000000,142.000000,-2.000000,142.000000,997.000000,143.000000,-164.000000,143.000000,-125.000000,143.000000,-144.000000,697.000000,0.000000,0.000000,0.000000,697.000000,0.000000,0.000000,0.000000,697.000000,0.000000,0.000000,0.000000
1446.000000,0.000000,0.000000,0.000000,0.000000,1450.000000,0.000000,0.000000,0.000000,0.000000,0.000000,0.000000,0.000000,0.000000,0.000000,0.000000,0.000000,0.000000,143.000000,64060.000000,65343.000000,152.000000,136.000000,65501.000000,152.000000,15228.000000,21.000000,3687.000000,0.000000,0.000000,152.000000,3.000000,152.000000,3.000000,152.000000,1001.000000,153.000000,-134.000000,153.000000,180.000000,153.000000,-53.000000,741.000000,0.000000,0.000000,0.000000,741.000000,0.000000,0.000000,0.000000,743.000000,0.000000,0.000000,0.000000
1539.000000,0.000000,0.000000,0.000000,0.000000,1547.000000,0.000000,0.000000,0.000000,0.000000,0.000000,0.000000,0.000000,0.000000,0.000000,0.000000,0.000000,0.000000,153.000000,64200.000000,65350.000000,159.000000,172.000000,65504.000000,159.000000,15324.000000,22.000000,3928.000000,0.000000,0.000000,159.000000,12.000000,159.000000,5.000000,160.000000,1007.000000,164.000000,80.000000,164.000000,272.000000,164.000000,-22.000000,792.000000,0.000000,0.000000,0.000000,792.000000,0.000000,0.000000,0.000000,792.000000,0.000000,0.000000,0.000000
1634.000000,0.000000,0.000000,0.000000,0.000000,1641.000000,0.000000,0.000000,0.000000,0.000000,0.000000,0.000000,0.000000,0.000000,0.000000,0.000000,0.000000,0.000000,164.000000,64112.000000,65349.000000,168.000000,100.000000,65496.000000,168.000000,15316.000000,25.000000,4162.000000,0.000000,0.000000,169.000000,7.000000,169.000000,1.000000,169.000000,1006.000000,171.000000,50.000000,171.000000,28.000000,171.000000,69.000000,838.000000,0.000000,0.000000,0.000000,838.000000,0.000000,0.000000,0.000000,838.000000,0.000000,0.000000,0.000000
1729.000000,0.000000,0.000000,0.000000,0.000000,1736.000000,0.000000,0.000000,0.000000,0.000000,0.000000,0.000000,0.000000,0.000000,0.000000,0.000000,0.000000,0.000000,173.000000,64112.000000,65349.000000,178.000000,100.000000,65496.000000,178.000000,15316.000000,25.000000,4402.000000,0.000000,0.000000,178.000000,7.000000,178.000000,1.000000,178.000000,1006.000000,181.000000,50.000000,181.000000,28.000000,181.000000,69.000000,887.000000,0.000000,0.000000,0.000000,887.000000,0.000000,0.000000,0.000000,887.000000,0.000000,0.000000,0.000000
1825.000000,0.000000,0.000000,0.000000,0.000000,1831.000000,0.000000,0.000000,0.000000,0.000000,0.000000,0.000000,0.000000,0.000000,0.000000,0.000000,0.000000,0.000000,181.000000,64120.000000,65352.000000,187.000000,136.000000,65498.000000,187.000000,15168.000000,25.000000,4636.000000,0.000000,0.000000,187.000000,7.000000,188.000000,3.000000,188.000000,997.000000,190.000000,141.000000,190.000000,89.000000,191.000000,69.000000,931.000000,0.000000,0.000000,0.000000,931.000000,0.000000,0.000000,0.000000,933.000000,0.000000,0.000000,0.000000
1920.000000,0.000000,0.000000,0.000000,0.000000,1926.000000,0.000000,0.000000,0.000000,0.000000,0.000000,0.000000,0.000000,0.000000,0.000000,0.000000,0.000000,0.000000,191.000000,64044.000000,65349.000000,197.000000,136.000000,65499.000000,197.000000,15232.000000,20.000000,4879.000000,0.000000,0.000000,197.000000,2.000000,197.000000,3.000000,197.000000,1001.000000,202.000000,50.000000,202.000000,119.000000,202.000000,-83.000000,983.000000,0.000000,0.000000,0.000000,983.000000,0.000000,0.000000,0.000000,983.000000,0.000000,0.000000,0.000000
2015.000000,0.000000,0.000000,0.000000,0.000000,2022.000000,0.000000,0.000000,0.000000,0.000000,0.000000,0.000000,0.000000,0.000000,0.000000,0.000000,0.000000,0.000000,203.000000,63960.000000,65352.000000,208.000000,144.000000,65494.000000,208.000000,15432.000000,22.000000,5113.000000,0.000000,0.000000,208.000000,-3.000000,208.000000,3.000000,208.000000,1013.000000,210.000000,141.000000,210.000000,-33.000000,210.000000,-22.000000,1026.000000,0.000000,0.000000,0.000000,1026.000000,0.000000,0.000000,0.000000,1028.000000,0.000000,0.000000,0.000000
2111.000000,0.000000,0.000000,0.000000,0.000000,2115.000000,0.000000,0.000000,0.000000,0.000000,0.000000,0.000000,0.000000,0.000000,0.000000,0.000000,0.000000,0.000000,217.000000,64016.000000,65348.000000,217.000000,276.000000,65494.000000,217.000000,15172.000000,23.000000,5354.000000,0.000000,0.000000,217.000000,1.000000,219.000000,11.000000,219.000000,998.000000,219.000000,19.000000,219.000000,-33.000000,219.000000,8.000000,1079.000000,0.000000,0.000000,0.000000,1079.000000,0.000000,0.000000,0.000000,1079.000000,0.000000,0.000000,0.000000
2204.000000,0.000000,0.000000,0.000000,0.000000,2211.000000,0.000000,0.000000,0.000000,0.000000,0.000000,0.000000,0.000000,0.000000,0.000000,0.000000,0.000000,0.000000,224.000000,64016.000000,65348.000000,225.000000,276.000000,65494.000000,225.000000,15172.000000,23.000000,5589.000000,0.000000,0.000000,225.000000,1.000000,225.000000,11.000000,226.000000,998.000000,228.000000,19.000000,229.000000,-33.000000,229.000000,8.000000,1121.000000,0.000000,0.000000,0.000000,1121.000000,0.000000,0.000000,0.000000,1123.000000,0.000000,0.000000,0.000000
2301.000000,0.000000,0.000000,0.000000,0.000000,2306.000000,0.000000,0.000000,0.000000,0.000000,0.000000,0.000000,0.000000,0.000000,0.000000,0.000000,0.000000,0.000000,229.000000,64048.000000,65349.000000,235.000000,108.000000,65496.000000,235.000000,15252.000000,26.000000,5829.000000,0.000000,0.000000,235.000000,3.000000,235.000000,1.000000,235.000000,1002.000000,240.000000,50.000000,240.000000,28.000000,240.000000,100.000000,1171.000000,0.000000,0.000000,0.000000,1171.000000,0.000000,0.000000,0.000000,1171.000000,0.000000,0.000000,0.000000
2396.000000,0.000000,0.000000,0.000000,0.000000,2401.000000,0.000000,0.000000,0.000000,0.000000,0.000000,0.000000,0.000000,0.000000,0.000000,0.000000,0.000000,0.000000,240.000000,64144.000000,65351.000000,245.000000,132.000000,65493.000000,245.000000,15224.000000,27.000000,6061.000000,0.000000,0.000000,245.000000,9.000000,245.000000,3.000000,245.000000,1001.000000,249.000000,111.000000,249.000000,-64.000000,249.000000,130.000000,1216.000000,0.000000,0.000000,0.000000,1217.000000,0.000000,0.000000,0.000000,1218.000000,0.000000,0.000000,0.000000
2492.000000,0.000000,0.000000,0.000000,0.000000,2496.000000,0.000000,0.000000,0.000000,0.000000,0.000000,0.000000,0.000000,0.000000,0.000000,0.000000,0.000000,0.000000,249.000000,63816.000000,65352.000000,255.000000,212.000000,65481.000000,255.000000,15744.000000,23.000000,6303.000000,0.000000,0.000000,255.000000,-11.000000,255.000000,7.000000,255.000000,1032.000000,257.000000,141.000000,258.000000,-430.000000,258.000000,8.000000,1268.000000,0.000000,0.000000,0.000000,1269.000000,0.000000,0.000000,0.000000,1269.000000,0.000000,0.000000,0.000000
2587.000000,0.000000,0.000000,0.000000,0.000000,2591.000000,0.000000,0.000000,0.000000,0.000000,0.000000,0.000000,0.000000,0.000000,0.000000,0.000000,0.000000,0.000000,258.000000,63816.000000,65352.000000,264.000000,212.000000,65481.000000,264.000000,15744.000000,23.000000,6537.000000,0.000000,0.000000,264.000000,-11.000000,264.000000,7.000000,264.000000,1032.000000,266.000000,141.000000,266.000000,-430.000000,267.000000,8.000000,1312.000000,0.000000,0.000000,0.000000,1313.000000,0.000000,0.000000,0.000000,1313.000000,0.000000,0.000000,0.000000
2681.000000,0.000000,0.000000,0.000000,0.000000,2686.000000,0.000000,0.000000,0.000000,0.000000,0.000000,0.000000,0.000000,0.000000,0.000000,0.000000,0.000000,0.000000,269.000000,63968.000000,65357.000000,273.000000,44.000000,65491.000000,273.000000,15252.000000,25.000000,6777.000000,0.000000,0.000000,273.000000,-2.000000,273.000000,-3.000000,273.000000,1002.000000,276.000000,294.000000,276.000000,-125.000000,276.000000,69.000000,1363.000000,0.000000,0.000000,0.000000,1363.000000,0.000000,0.000000,0.000000,1363.000000,0.000000,0.000000,0.000000
2777.000000,0.000000,0.000000,0.000000,0.000000,2781.000000,0.000000,0.000000,0.000000,0.000000,0.000000,0.000000,0.000000,0.000000,0.000000,0.000000,0.000000,0.000000,276.000000,63956.000000,65355.000000,282.000000,104.000000,65486.000000,282.000000,15172.000000,27.000000,7011.000000,0.000000,0.000000,282.000000,-3.000000,282.000000,1.000000,282.000000,998.000000,287.000000,233.000000,287.000000,-277.000000,287.000000,130.000000,1406.000000,0.000000,0.000000,0.000000,1406.000000,0.000000,0.000000,0.000000,1408.000000,0.000000,0.000000,0.000000
2870.000000,0.000000,0.000000,0.000000,0.000000,2876.000000,0.000000,0.000000,0.000000,0.000000,0.000000,0.000000,0.000000,0.000000,0.000000,0.000000,0.000000,0.000000,287.000000,63988.000000,65356.000000,292.000000,148.000000,65494.000000,292.000000,15208.000000,24.000000,7254.000000,0.000000,0.000000,292.000000,-1.000000,292.000000,4.000000,292.000000,1000.000000,297.000000,263.000000,297.000000,-33.000000,297.000000,39.000000,1457.000000,0.000000,0.000000,0.000000,1457.000000,0.000000,0.000000,0.000000,1457.000000,0.000000,0.000000,0.000000
2965.000000,0.000000,0.000000,0.000000,0.000000,2971.000000,0.000000,0.000000,0.000000,0.000000,0.000000,0.000000,0.000000,0.000000,0.000000,0.000000,0.000000,0.000000,297.000000,63988.000000,65356.000000,302.000000,148.000000,65494.000000,302.000000,15208.000000,24.000000,7486.000000,0.000000,0.000000,302.000000,-1.000000,302.000000,4.000000,302.000000,1000.000000,307.000000,263.000000,307.000000,-33.000000,307.000000,39.000000,1501.000000,0.000000,0.000000,0.000000,1501.000000,0.000000,0.000000,0.000000,1504.000000,0.000000,0.000000,0.000000
3062.000000,0.000000,0.000000,0.000000,0.000000,3067.000000,0.000000,0.000000,0.000000,0.000000,0.000000,0.000000,0.000000,0.000000,0.000000,0.000000,0.000000,0.000000,311.000000,64100.000000,65350.000000,311.000000,124.000000,65488.000000,311.000000,15080.000000,29.000000,7729.000000,0.000000,0.000000,311.000000,6.000000,316.000000,2.000000,316.000000,992.000000,316.000000,80.000000,316.000000,-216.000000,316.000000,192.000000,1553.000000,0.000000,0.000000,0.000000,1553.000000,0.000000,0.000000,0.000000,1553.000000,0.000000,0.000000,0.000000
3157.000000,0.000000,0.000000,0.000000,0.000000,3162.000000,0.000000,0.000000,0.000000,0.000000,0.000000,0.000000,0.000000,0.000000,0.000000,0.000000,0.000000,0.000000,317.000000,64024.000000,65350.000000,322.000000,64.000000,65503.000000,322.000000,15224.000000,25.000000,7961.000000,0.000000,0.000000,322.000000,1.000000,322.000000,-2.000000,322.000000,1001.000000,324.000000,80.000000,324.000000,241.000000,324.000000,69.000000,1596.000000,0.000000,0.000000,0.000000,1596.000000,0.000000,0.000000,0.000000,1598.000000,0.000000,0.000000,0.000000
3250.000000,0.000000,0.000000,0.000000,0.000000,3255.000000,0.000000,0.000000,0.000000,0.000000,0.000000,0.000000,0.000000,0.000000,0.000000,0.000000,0.000000,0.000000,324.000000,63968.000000,65344.000000,329.000000,160.000000,65490.000000,329.000000,15164.000000,24.000000,8203.000000,0.000000,0.000000,330.000000,-2.000000,330.000000,4.000000,330.000000,997.000000,335.000000,-103.000000,335.000000,-155.000000,335.000000,39.000000,1647.000000,0.000000,0.000000,0.000000,1647.000000,0.000000,0.000000,0.000000,1647.000000,0.000000,0.000000,0.000000
3344.000000,0.000000,0.000000,0.000000,0.000000,3351.000000,0.000000,0.000000,0.000000,0.000000,0.000000,0.000000,0.000000,0.000000,0.000000,0.000000,0.000000,0.000000,335.000000,63968.000000,65344.000000,339.000000,160.000000,65490.000000,339.000000,15164.000000,24.000000,8437.000000,0.000000,0.000000,339.000000,-2.000000,340.000000,4.000000,340.000000,997.000000,343.000000,-103.000000,343.000000,-155.000000,343.000000,39.000000,1693.000000,0.000000,0.000000,0.000000,1693.000000,0.000000,0.000000,0.000000,1693.000000,0.000000,0.000000,0.000000
3440.000000,0.000000,0.000000,0.000000,0.000000,3446.000000,0.000000,0.000000,0.000000,0.000000,0.000000,0.000000,0.000000,0.000000,0.000000,0.000000,0.000000,0.000000,343.000000,63980.000000,65341.000000,349.000000,96.000000,65478.000000,349.000000,15084.000000,26.000000,8678.000000,0.000000,0.000000,349.000000,-1.000000,349.000000,0.000000,349.000000,992.000000,353.000000,-195.000000,353.000000,-522.000000,353.000000,100.000000,1742.000000,0.000000,0.000000,0.000000,1742.000000,0.000000,0.000000,0.000000,1742.000000,0.000000,0.000000,0.000000
3537.000000,0.000000,0.000000,0.000000,0.000000,3541.000000,0.000000,0.000000,0.000000,0.000000,0.000000,0.000000,0.000000,0.000000,0.000000,0.000000,0.000000,0.000000,353.000000,64056.000000,65348.000000,358.000000,112.000000,65486.000000,358.000000,15188.000000,21.000000,8913.000000,0.000000,0.000000,358.000000,3.000000,358.000000,1.000000,358.000000,999.000000,363.000000,19.000000,363.000000,-277.000000,363.000000,-53.000000,1788.000000,0.000000,0.000000,0.000000,1788.000000,0.000000,0.000000,0.000000,1788.000000,0.000000,0.000000,0.000000
3630.000000,0.000000,0.000000,0.000000,0.000000,3635.000000,0.000000,0.000000,0.000000,0.000000,0.000000,0.000000,0.000000,0.000000,0.000000,0.000000,0.000000,0.000000,363.000000,64084.000000,65342.000000,368.000000,116.000000,65485.000000,368.000000,15204.000000,29.000000,9152.000000,0.000000,0.000000,368.000000,5.000000,368.000000,2.000000,369.000000,1000.000000,371.000000,-164.000000,372.000000,-308.000000,372.000000,192.000000,1836.000000,0.000000,0.000000,0.000000,1837.000000,0.000000,0.000000,0.000000,1837.000000,0.000000,0.000000,0.000000
3726.000000,0.000000,0.000000,0.000000,0.000000,3731.000000,0.000000,0.000000,0.000000,0.000000,0.000000,0.000000,0.000000,0.000000,0.000000,0.000000,0.000000,0.000000,372.000000,63996.000000,65346.000000,378.000000,116.000000,65497.000000,378.000000,15216.000000,19.000000,9386.000000,0.000000,0.000000,378.000000,0.000000,378.000000,2.000000,378.000000,1000.000000,381.000000,-42.000000,381.000000,58.000000,381.000000,-114.000000,1882.000000,0.000000,0.000000,0.000000,1882.000000,0.000000,0.000000,0.000000,1883.000000,0.000000,0.000000,0.000000
3821.000000,0.000000,0.000000,0.000000,0.000000,3826.000000,0.000000,0.000000,0.000000,0.000000,0.000000,0.000000,0.000000,0.000000,0.000000,0.000000,0.000000,0.000000,381.000000,63996.000000,65346.000000,387.000000,116.000000,65497.000000,387.000000,15216.000000,19.000000,9629.000000,0.000000,0.000000,387.000000,0.000000,387.000000,2.000000,387.000000,1000.000000,392.000000,-42.000000,392.000000,58.000000,392.000000,-114.000000,1931.000000,0.000000,0.000000,0.000000,1931.000000,0.000000,0.000000,0.000000,1931.000000,0.000000,0.000000,0.000000
3917.000000,0.000000,0.000000,0.000000,0.000000,3922.000000,0.000000,0.000000,0.000000,0.000000,0.000000,0.000000,0.000000,0.000000,0.000000,0.000000,0.000000,0.000000,392.000000,64056.000000,65349.000000,397.000000,12.000000,65503.000000,397.000000,15164.000000,22.000000,9861.000000,0.000000,0.000000,397.000000,3.000000,397.000000,-5.000000,397.000000,997.000000,402.000000,50.000000,402.000000,241.000000,402.000000,-22.000000,1977.000000,0.000000,0.000000,0.000000,1977.000000,0.000000,0.000000,0.000000,1978.000000,0.000000,0.000000,0.000000
4009.000000,0.000000,0.000000,0.000000,0.000000,4015.000000,0.000000,0.000000,0.000000,0.000000,0.000000,0.000000,0.000000,0.000000,0.000000,0.000000,0.000000,0.000000,407.000000,64112.000000,65348.000000,407.000000,144.000000,65499.000000,407.000000,15212.000000,24.000000,10103.000000,0.000000,0.000000,407.000000,7.000000,409.000000,3.000000,409.000000,1000.000000,409.000000,19.000000,409.000000,119.000000,409.000000,39.000000,2028.000000,0.000000,0.000000,0.000000,2029.000000,0.000000,0.000000,0.000000,2029.000000,0.000000,0.000000,0.000000
4105.000000,0.000000,0.000000,0.000000,0.000000,4111.000000,0.000000,0.000000,0.000000,0.000000,0.000000,0.000000,0.000000,0.000000,0.000000,0.000000,0.000000,0.000000,412.000000,63916.000000,65350.000000,417.000000,88.000000,65487.000000,417.000000,15216.000000,26.000000,10338.000000,0.000000,0.000000,417.000000,-5.000000,417.000000,0.000000,417.000000,1000.000000,418.000000,80.000000,418.000000,-247.000000,418.000000,100.000000,2072.000000,0.000000,0.000000,0.000000,2072.000000,0.000000,0.000000,0.000000,2074.000000,0.000000,0.000000,0.000000
4200.000000,0.000000,0.000000,0.000000,0.000000,4207.000000,0.000000,0.000000,0.000000,0.000000,0.000000,0.000000,0.000000,0.000000,0.000000,0.000000,0.000000,0.000000,418.000000,63916.000000,65350.000000,425.000000,88.000000,65487.000000,425.000000,15216.000000,26.000000,10578.000000,0.000000,0.000000,425.000000,-5.000000,425.000000,0.000000,425.000000,1000.000000,429.000000,80.000000,429.000000,-247.000000,429.000000,100.000000,2121.000000,0.000000,0.000000,0.000000,2121.000000,0.000000,0.000000,0.000000,2121.000000,0.000000,0.000000,0.000000
4295.000000,0.000000,0.000000,0.000000,0.000000,4301.000000,0.000000,0.000000,0.000000,0.000000,0.000000,0.000000,0.000000,0.000000,0.000000,0.000000,0.000000,0.000000,429.000000,64032.000000,65345.000000,434.000000,180.000000,65497.000000,434.000000,15148.000000,24.000000,10811.000000,0.000000,0.000000,434.000000,2.000000,434.000000,5.000000,435.000000,996.000000,437.000000,-73.000000,438.000000,58.000000,438.000000,39.000000,2166.000000,0.000000,0.000000,0.000000,2166.000000,0.000000,0.000000,0.000000,2168.000000,0.000000,0.000000,0.000000
4390.000000,0.000000,0.000000,0.000000,0.000000,4397.000000,0.000000,0.000000,0.000000,0.000000,0.000000,0.000000,0.000000,0.000000,0.000000,0.000000,0.000000,0.000000,438.000000,64132.000000,65350.000000,444.000000,140.000000,65502.000000,444.000000,15164.000000,25.000000,11053.000000,0.000000,0.000000,444.000000,8.000000,444.000000,3.000000,444.000000,997.000000,449.000000,80.000000,449.000000,211.000000,449.000000,69.000000,2219.000000,0.000000,0.000000,0.000000,2219.000000,0.000000,0.000000,0.000000,2219.000000,0.000000,0.000000,0.000000
4485.000000,0.000000,0.000000,0.000000,0.000000,4491.000000,0.000000,0.000000,0.000000,0.000000,0.000000,0.000000,0.000000,0.000000,0.000000,0.000000,0.000000,0.000000,449.000000,64100.000000,65343.000000,454.000000,176.000000,65494.000000,454.000000,15260.000000,20.000000,11286.000000,0.000000,0.000000,454.000000,6.000000,454.000000,5.000000,454.000000,1003.000000,456.000000,-134.000000,457.000000,-33.000000,457.000000,-83.000000,2261.000000,0.000000,0.000000,0.000000,2263.000000,0.000000,0.000000,0.000000,2263.000000,0.000000,0.000000,0.000000
4581.000000,0.000000,0.000000,0.000000,0.000000,4586.000000,0.000000,0.000000,0.000000,0.000000,0.000000,0.000000,0.000000,0.000000,0.000000,0.000000,0.000000,0.000000,458.000000,64100.000000,65343.000000,463.000000,176.000000,65494.000000,463.000000,15260.000000,20.000000,11527.000000,0.000000,0.000000,463.000000,6.000000,463.000000,5.000000,463.000000,1003.000000,468.000000,-134.000000,468.000000,-33.000000,468.000000,-83.000000,2314.000000,0.000000,0.000000,0.000000,2314.000000,0.000000,0.000000,0.000000,2314.000000,0.000000,0.000000,0.000000
4678.000000,0.000000,0.000000,0.000000,0.000000,4683.000000,0.000000,0.000000,0.000000,0.000000,0.000000,0.000000,0.000000,0.000000,0.000000,0.000000,0.000000,0.000000,468.000000,64164.000000,65349.000000,472.000000,40.000000,65493.000000,472.000000,15056.000000,21.000000,11761.000000,0.000000,0.000000,472.000000,10.000000,472.000000,-3.000000,472.000000,990.000000,477.000000,50.000000,477.000000,-64.000000,477.000000,-53.000000,2358.000000,0.000000,0.000000,0.000000,2358.000000,0.000000,0.000000,0.000000,2358.000000,0.000000,0.000000,0.000000
4772.000000,0.000000,0.000000,0.000000,0.000000,4777.000000,0.000000,0.000000,0.000000,0.000000,0.000000,0.000000,0.000000,0.000000,0.000000,0.000000,0.000000,0.000000,477.000000,64056.000000,65346.000000,482.000000,180.000000,65499.000000,482.000000,15232.000000,30.000000,12003.000000,0.000000,0.000000,482.000000,3.000000,482.000000,5.000000,482.000000,1001.000000,487.000000,-42.000000,487.000000,119.000000,487.000000,222.000000,2406.000000,0.000000,0.000000,0.000000,2406.000000,0.000000,0.000000,0.000000,2406.000000,0.000000,0.000000,0.000000
4866.000000,0.000000,0.000000,0.000000,0.000000,4871.000000,0.000000,0.000000,0.000000,0.000000,0.000000,0.000000,0.000000,0.000000,0.000000,0.000000,0.000000,0.000000,488.000000,63980.000000,65344.000000,492.000000,228.000000,65493.000000,492.000000,15280.000000,22.000000,12237.000000,0.000000,0.000000,492.000000,-1.000000,492.000000,8.000000,492.000000,1004.000000,494.000000,-103.000000,494.000000,-64.000000,494.000000,-22.000000,2452.000000,0.000000,0.000000,0.000000,2452.000000,0.000000,0.000000,0.000000,2453.000000,0.000000,0.000000,0.000000
4960.000000,0.000000,0.000000,0.000000,0.000000,4967.000000,0.000000,0.000000,0.000000,0.000000,0.000000,0.000000,0.000000,0.000000,0.000000,0.000000,0.000000,0.000000,501.000000,63980.000000,65344.000000,501.000000,228.000000,65493.000000,501.000000,15280.000000,22.000000,12477.000000,0.000000,0.000000,501.000000,-1.000000,504.000000,8.000000,504.000000,1004.000000,504.000000,-103.000000,504.000000,-64.000000,504.000000,-22.000000,2504.000000,0.000000,0.000000,0.000000,2504.000000,0.000000,0.000000,0.000000,2504.000000,0.000000,0.000000,0.000000
5055.000000,0.000000,0.000000,0.000000,0.000000,5063.000000,0.000000,0.000000,0.000000,0.000000,0.000000,0.000000,0.000000,0.000000,0.000000,0.000000,0.000000,0.000000,509.000000,64168.000000,65352.000000,511.000000,120.000000,65497.000000,511.000000,15088.000000,22.000000,12712.000000,0.000000,0.000000,511.000000,10.000000,511.000000,2.000000,511.000000,992.000000,516.000000,141.000000,516.000000,58.000000,516.000000,-22.000000,2548.000000,0.000000,0.000000,0.000000,2548.000000,0.000000,0.000000,0.000000,2548.000000,0.000000,0.000000,0.000000
5152.000000,0.000000,0.000000,0.000000,0.000000,5156.000000,0.000000,0.000000,0.000000,0.000000,0.000000,0.000000,0.000000,0.000000,0.000000,0.000000,0.000000,0.000000,516.000000,64080.000000,65350.000000,520.000000,136.000000,65501.000000,520.000000,15180.000000,21.000000,12954.000000,0.000000,0.000000,520.000000,5.000000,520.000000,3.000000,520.000000,998.000000,525.000000,80.000000,525.000000,180.000000,525.000000,-53.000000,2597.000000,0.000000,0.000000,0.000000,2597.000000,0.000000,0.000000,0.000000,2597.000000,0.000000,0.000000,0.000000
5245.000000,0.000000,0.000000,0.000000,0.000000,5251.000000,0.000000,0.000000,0.000000,0.000000,0.000000,0.000000,0.000000,0.000000,0.000000,0.000000,0.000000,0.000000,525.000000,64088.000000,65348.000000,530.000000,116.000000,65491.000000,530.000000,15268.000000,22.000000,13186.000000,0.000000,0.000000,530.000000,5.000000,530.000000,2.000000,530.000000,1003.000000,532.000000,19.000000,533.000000,-125.000000,533.000000,-22.000000,2641.000000,0.000000,0.000000,0.000000,2641.000000,0.000000,0.000000,0.000000,2643.000000,0.000000,0.000000,0.000000
5339.000000,0.000000,0.000000,0.000000,0.000000,5346.000000,0.000000,0.000000,0.000000,0.000000,0.000000,0.000000,0.000000,0.000000,0.000000,0.000000,0.000000,0.000000,533.000000,64040.000000,65347.000000,539.000000,116.000000,65490.000000,539.000000,15224.000000,16.000000,13429.000000,0.000000,0.000000,539.000000,2.000000,539.000000,2.000000,539.000000,1001.000000,542.000000,-11.000000,542.000000,-155.000000,542.000000,-205.000000,2694.000000,0.000000,0.000000,0.000000,2694.000000,0.000000,0.000000,0.000000,2694.000000,0.000000,0.000000,0.000000
5437.000000,0.000000,0.000000,0.000000,0.000000,5442.000000,0.000000,0.000000,0.000000,0.000000,0.000000,0.000000,0.000000,0.000000,0.000000,0.000000,0.000000,0.000000,542.000000,64040.000000,65347.000000,549.000000,116.000000,65490.000000,549.000000,15224.000000,16.000000,13661.000000,0.000000,0.000000,549.000000,2.000000,549.000000,2.000000,549.000000,1001.000000,550.000000,-11.000000,550.000000,-155.000000,550.000000,-205.000000,2739.000000,0.000000,0.000000,0.000000,2739.000000,0.000000,0.000000,0.000000,2739.000000,0.000000,0.000000,0.000000
5530.000000,0.000000,0.000000,0.000000,0.000000,5536.000000,0.000000,0.000000,0.000000,0.000000,0.000000,0.000000,0.000000,0.000000,0.000000,0.000000,0.000000,0.000000,555.000000,64144.000000,65348.000000,558.000000,116.000000,65499.000000,558.000000,15260.000000,20.000000,13901.000000,0.000000,0.000000,558.000000,9.000000,558.000000,2.000000,558.000000,1003.000000,563.000000,19.000000,563.000000,119.000000,563.000000,-83.000000,2787.000000,0.000000,0.000000,0.000000,2787.000000,0.000000,0.000000,0.000000,2787.000000,0.000000,0.000000,0.000000
5626.000000,0.000000,0.000000,0.000000,0.000000,5631.000000,0.000000,0.000000,0.000000,0.000000,0.000000,0.000000,0.000000,0.000000,0.000000,0.000000,0.000000,0.000000,563.000000,64064.000000,65348.000000,567.000000,96.000000,65484.000000,567.000000,15120.000000,28.000000,14135.000000,0.000000,0.000000,567.000000,4.000000,568.000000,0.000000,568.000000,994.000000,571.000000,19.000000,571.000000,-338.000000,571.000000,161.000000,2833.000000,0.000000,0.000000,0.000000,2833.000000,0.000000,0.000000,0.000000,2833.000000,0.000000,0.000000,0.000000
5720.000000,0.000000,0.000000,0.000000,0.000000,5726.000000,0.000000,0.000000,0.000000,0.000000,0.000000,0.000000,0.000000,0.000000,0.000000,0.000000,0.000000,0.000000,571.000000,64144.000000,65345.000000,579.000000,76.000000,65492.000000,579.000000,15196.000000,22.000000,14379.000000,0.000000,0.000000,579.000000,9.000000,579.000000,-1.000000,579.000000,999.000000,580.000000,-73.000000,580.000000,-94.000000,580.000000,-22.000000,2882.000000,0.000000,0.000000,0.000000,2882.000000,0.000000,0.000000,0.000000,2882.000000,0.000000,0.000000,0.000000
5814.000000,0.000000,0.000000,0.000000,0.000000,5821.000000,0.000000,0.000000,0.000000,0.000000,0.000000,0.000000,0.000000,0.000000,0.000000,0.000000,0.000000,0.000000,580.000000,64144.000000,65345.000000,586.000000,76.000000,65492.000000,586.000000,15196.000000,22.000000,14611.000000,0.000000,0.000000,586.000000,9.000000,586.000000,-1.000000,586.000000,999.000000,590.000000,-73.000000,590.000000,-94.000000,590.000000,-22.000000,2926.000000,0.000000,0.000000,0.000000,2926.000000,0.000000,0.000000,0.000000,2928.000000,0.000000,0.000000,0.000000
5912.000000,0.000000,0.000000,0.000000,0.000000,5917.000000,0.000000,0.000000,0.000000,0.000000,0.000000,0.000000,0.000000,0.000000,0.000000,0.000000,0.000000,0.000000,596.000000,64112.000000,65350.000000,596.000000,140.000000,65490.000000,596.000000,15248.000000,21.000000,14851.000000,0.000000,0.000000,596.000000,7.000000,600.000000,3.000000,600.000000,1002.000000,600.000000,80.000000,600.000000,-155.000000,600.000000,-53.000000,2979.000000,0.000000,0.000000,0.000000,2979.000000,0.000000,0.000000,0.000000,2979.000000,0.000000,0.000000,0.000000
6006.000000,0.000000,0.000000,0.000000,0.000000,6011.000000,0.000000,0.000000,0.000000,0.000000,0.000000,0.000000,0.000000,0.000000,0.000000,0.000000,0.000000,0.000000,602.000000,63864.000000,65348.000000,605.000000,152.000000,65494.000000,605.000000,15180.000000,23.000000,15088.000000,0.000000,0.000000,605.000000,-9.000000,605.000000,4.000000,605.000000,998.000000,610.000000,19.000000,610.000000,-33.000000,610.000000,8.000000,3021.000000,0.000000,0.000000,0.000000,3021.000000,0.000000,0.000000,0.000000,3023.000000,0.000000,0.000000,0.000000
6101.000000,0.000000,0.000000,0.000000,0.000000,6105.000000,0.000000,0.000000,0.000000,0.000000,0.000000,0.000000,0.000000,0.000000,0.000000,0.000000,0.000000,0.000000,610.000000,63988.000000,65346.000000,615.000000,20.000000,65493.000000,615.000000,15408.000000,22.000000,15329.000000,0.000000,0.000000,615.000000,-1.000000,615.000000,-4.000000,615.000000,1012.000000,619.000000,-42.000000,619.000000,-64.000000,619.000000,-22.000000,3073.000000,0.000000,0.000000,0.000000,3073.000000,0.000000,0.000000,0.000000,3073.000000,0.000000,0.000000,0.000000
6196.000000,0.000000,0.000000,0.000000,0.000000,6201.000000,0.000000,0.000000,0.000000,0.000000,0.000000,0.000000,0.000000,0.000000,0.000000,0.000000,0.000000,0.000000,619.000000,63988.000000,65346.000000,624.000000,20.000000,65493.000000,624.000000,15408.000000,22.000000,15563.000000,0.000000,0.000000,624.000000,-1.000000,624.000000,-4.000000,625.000000,1012.000000,627.000000,-42.000000,627.000000,-64.000000,627.000000,-22.000000,3116.000000,0.000000,0.000000,0.000000,3116.000000,0.000000,0.000000,0.000000,3118.000000,0.000000,0.000000,0.000000
6291.000000,0.000000,0.000000,0.000000,0.000000,6296.000000,0.000000,0.000000,0.000000,0.000000,0.000000,0.000000,0.000000,0.000000,0.000000,0.000000,0.000000,0.000000,627.000000,63960.000000,65348.000000,634.000000,140.000000,65493.000000,634.000000,15240.000000,27.000000,15802.000000,0.000000,0.000000,634.000000,-3.000000,634.000000,3.000000,634.000000,1002.000000,637.000000,19.000000,637.000000,-64.000000,638.000000,130.000000,3167.000000,0.000000,0.000000,0.000000,3167.000000,0.000000,0.000000,0.000000,3167.000000,0.000000,0.000000,0.000000
6385.000000,0.000000,0.000000,0.000000,0.000000,6392.000000,0.000000,0.000000,0.000000,0.000000,0.000000,0.000000,0.000000,0.000000,0.000000,0.000000,0.000000,0.000000,638.000000,64072.000000,65348.000000,644.000000,88.000000,65496.000000,644.000000,15112.000000,24.000000,16038.000000,0.000000,0.000000,644.000000,4.000000,644.000000,0.000000,644.000000,994.000000,646.000000,19.000000,647.000000,28.000000,647.000000,39.000000,3211.000000,0.000000,0.000000,0.000000,3214.000000,0.000000,0.000000,0.000000,3214.000000,0.000000,0.000000,0.000000
6479.000000,0.000000,0.000000,0.000000,0.000000,6486.000000,0.000000,0.000000,0.000000,0.000000,0.000000,0.000000,0.000000,0.000000,0.000000,0.000000,0.000000,0.000000,649.000000,64076.000000,65347.000000,653.000000,32.000000,65493.000000,653.000000,15188.000000,24.000000,16277.000000,0.000000,0.000000,653.000000,4.000000,653.000000,-4.000000,654.000000,999.000000,656.000000,-11.000000,656.000000,-64.000000,656.000000,39.000000,3262.000000,0.000000,0.000000,0.000000,3262.000000,0.000000,0.000000,0.000000,3262.000000,0.000000,0.000000,0.000000
6575.000000,0.000000,0.000000,0.000000,0.000000,6581.000000,0.000000,0.000000,0.000000,0.000000,0.000000,0.000000,0.000000,0.000000,0.000000,0.000000,0.000000,0.000000,657.000000,64076.000000,65347.000000,663.000000,32.000000,65493.000000,663.000000,15188.000000,24.000000,16511.000000,0.000000,0.000000,663.000000,4.000000,663.000000,-4.000000,663.000000,999.000000,666.000000,-11.000000,666.000000,-64.000000,666.000000,39.000000,3307.000000,0.000000,0.000000,0.000000,3307.000000,0.000000,0.000000,0.000000,3308.000000,0.000000,0.000000,0.000000
6671.000000,0.000000,0.000000,0.000000,0.000000,6676.000000,0.000000,0.000000,0.000000,0.000000,0.000000,0.000000,0.000000,0.000000,0.000000,0.000000,0.000000,0.000000,666.000000,64168.000000,65345.000000,672.000000,116.000000,65484.000000,672.000000,15208.000000,30.000000,16752.000000,0.000000,0.000000,672.000000,10.000000,672.000000,2.000000,673.000000,1000.000000,675.000000,-73.000000,676.000000,-338.000000,676.000000,222.000000,3359.000000,0.000000,0.000000,0.000000,3359.000000,0.000000,0.000000,0.000000,3359.000000,0.000000,0.000000,0.000000
6767.000000,0.000000,0.000000,0.000000,0.000000,6771.000000,0.000000,0.000000,0.000000,0.000000,0.000000,0.000000,0.000000,0.000000,0.000000,0.000000,0.000000,0.000000,676.000000,64080.000000,65350.000000,681.000000,152.000000,65489.000000,681.000000,15256.000000,21.000000,16986.000000,0.000000,0.000000,682.000000,5.000000,682.000000,4.000000,682.000000,1003.000000,685.000000,80.000000,685.000000,-186.000000,685.000000,-53.000000,3401.000000,0.000000,0.000000,0.000000,3401.000000,0.000000,0.000000,0.000000,3405.000000,0.000000,0.000000,0.000000
6862.000000,0.000000,0.000000,0.000000,0.000000,6866.000000,0.000000,0.000000,0.000000,0.000000,0.000000,0.000000,0.000000,0.000000,0.000000,0.000000,0.000000,0.000000,691.000000,64084.000000,65343.000000,691.000000,104.000000,65494.000000,691.000000,15136.000000,24.000000,17228.000000,0.000000,0.000000,691.000000,5.000000,696.000000,1.000000,696.000000,995.000000,696.000000,-134.000000,696.000000,-33.000000,696.000000,39.000000,3454.000000,0.000000,0.000000,0.000000,3454.000000,0.000000,0.000000,0.000000,3454.000000,0.000000,0.000000,0.000000
6955.000000,0.000000,0.000000,0.000000,0.000000,6961.000000,0.000000,0.000000,0.000000,0.000000,0.000000,0.000000,0.000000,0.000000,0.000000,0.000000,0.000000,0.000000,697.000000,64100.000000,65341.000000,701.000000,116.000000,65493.000000,701.000000,15172.000000,31.000000,17461.000000,0.000000,0.000000,701.000000,6.000000,701.000000,2.000000,701.000000,998.000000,706.000000,-195.000000,706.000000,-64.000000,706.000000,253.000000,3497.000000,0.000000,0.000000,0.000000,3497.000000,0.000000,0.000000,0.000000,3498.000000,0.000000,0.000000,0.000000
7051.000000,0.000000,0.000000,0.000000,0.000000,7056.000000,0.000000,0.000000,0.000000,0.000000,0.000000,0.000000,0.000000,0.000000,0.000000,0.000000,0.000000,0.000000,706.000000,64100.000000,65341.000000,710.000000,116.000000,65493.000000,711.000000,15172.000000,31.000000,17703.000000,0.000000,0.000000,711.000000,6.000000,711.000000,2.000000,711.000000,998.000000,713.000000,-195.000000,713.000000,-64.000000,713.000000,253.000000,3547.000000,0.000000,0.000000,0.000000,3547.000000,0.000000,0.000000,0.000000,3547.000000,0.000000,0.000000,0.000000
7146.000000,0.000000,0.000000,0.000000,0.000000,7151.000000,0.000000,0.000000,0.000000,0.000000,0.000000,0.000000,0.000000,0.000000,0.000000,0.000000,0.000000,0.000000,713.000000,64032.000000,65351.000000,720.000000,76.000000,65490.000000,720.000000,15164.000000,26.000000,17936.000000,0.000000,0.000000,720.000000,2.000000,720.000000,-1.000000,720.000000,997.000000,724.000000,111.000000,724.000000,-155.000000,724.000000,100.000000,3591.000000,0.000000,0.000000,0.000000,3591.000000,0.000000,0.000000,0.000000,3593.000000,0.000000,0.000000,0.000000
7241.000000,0.000000,0.000000,0.000000,0.000000,7246.000000,0.000000,0.000000,0.000000,0.000000,0.000000,0.000000,0.000000,0.000000,0.000000,0.000000,0.000000,0.000000,724.000000,63976.000000,65346.000000,729.000000,140.000000,65496.000000,729.000000,15148.000000,22.000000,18179.000000,0.000000,0.000000,729.000000,-2.000000,730.000000,3.000000,730.000000,996.000000,733.000000,-42.000000,733.000000,28.000000,733.000000,-22.000000,3641.000000,0.000000,0.000000,0.000000,3641.000000,0.000000,0.000000,0.000000,3641.000000,0.000000,0.000000,0.000000
7337.000000,0.000000,0.000000,0.000000,0.000000,7341.000000,0.000000,0.000000,0.000000,0.000000,0.000000,0.000000,0.000000,0.000000,0.000000,0.000000,0.000000,0.000000,733.000000,63944.000000,65345.000000,739.000000,100.000000,65493.000000,739.000000,15076.000000,26.000000,18411.000000,0.000000,0.000000,739.000000,-4.000000,739.000000,1.000000,739.000000,992.000000,741.000000,-73.000000,741.000000,-64.000000,741.000000,100.000000,3687.000000,0.000000,0.000000,0.000000,3689.000000,0.000000,0.000000,0.000000,3689.000000,0.000000,0.000000,0.000000
7430.000000,0.000000,0.000000,0.000000,0.000000,7436.000000,0.000000,0.000000,0.000000,0.000000,0.000000,0.000000,0.000000,0.000000,0.000000,0.000000,0.000000,0.000000,743.000000,63944.000000,65345.000000,748.000000,100.000000,65493.000000,748.000000,15076.000000,26.000000,18652.000000,0.000000,0.000000,748.000000,-4.000000,748.000000,1.000000,748.000000,992.000000,753.000000,-73.000000,753.000000,-64.000000,753.000000,100.000000,3739.000000,0.000000,0.000000,0.000000,3739.000000,0.000000,0.000000,0.000000,3739.000000,0.000000,0.000000,0.000000
7525.000000,0.000000,0.000000,0.000000,0.000000,7531.000000,0.000000,0.000000,0.000000,0.000000,0.000000,0.000000,0.000000,0.000000,0.000000,0.000000,0.000000,0.000000,753.000000,63976.000000,65345.000000,758.000000,92.000000,65493.000000,758.000000,15308.000000,22.000000,18886.000000,0.000000,0.000000,758.000000,-2.000000,758.000000,0.000000,758.000000,1006.000000,761.000000,-73.000000,761.000000,-64.000000,761.000000,-22.000000,3783.000000,0.000000,0.000000,0.000000,3783.000000,0.000000,0.000000,0.000000,3783.000000,0.000000,0.000000,0.000000
7619.000000,0.000000,0.000000,0.000000,0.000000,7626.000000,0.000000,0.000000,0.000000,0.000000,0.000000,0.000000,0.000000,0.000000,0.000000,0.000000,0.000000,0.000000,761.000000,64176.000000,65349.000000,767.000000,104.000000,65486.000000,767.000000,15272.000000,19.000000,19129.000000,0.000000,0.000000,767.000000,10.000000,767.000000,1.000000,767.000000,1004.000000,771.000000,50.000000,771.000000,-277.000000,771.000000,-114.000000,3831.000000,0.000000,0.000000,0.000000,3831.000000,0.000000,0.000000,0.000000,3831.000000,0.000000,0.000000,0.000000
7715.000000,0.000000,0.000000,0.000000,0.000000,7721.000000,0.000000,0.000000,0.000000,0.000000,0.000000,0.000000,0.000000,0.000000,0.000000,0.000000,0.000000,0.000000,771.000000,64132.000000,65341.000000,776.000000,128.000000,65489.000000,776.000000,14960.000000,27.000000,19361.000000,0.000000,0.000000,776.000000,8.000000,776.000000,2.000000,776.000000,985.000000,781.000000,-195.000000,781.000000,-186.000000,781.000000,130.000000,3878.000000,0.000000,0.000000,0.000000,3878.000000,0.000000,0.000000,0.000000,3878.000000,0.000000,0.000000,0.000000
7811.000000,0.000000,0.000000,0.000000,0.000000,7815.000000,0.000000,0.000000,0.000000,0.000000,0.000000,0.000000,0.000000,0.000000,0.000000,0.000000,0.000000,0.000000,786.000000,64132.000000,65341.000000,786.000000,128.000000,65489.000000,786.000000,14960.000000,27.000000,19602.000000,0.000000,0.000000,786.000000,8.000000,791.000000,2.000000,791.000000,985.000000,791.000000,-195.000000,791.000000,-186.000000,791.000000,130.000000,3928.000000,0.000000,0.000000,0.000000,3928.000000,0.000000,0.000000,0.000000,3928.000000,0.000000,0.000000,0.000000
7905.000000,0.000000,0.000000,0.000000,0.000000,7911.000000,0.000000,0.000000,0.000000,0.000000,0.000000,0.000000,0.000000,0.000000,0.000000,0.000000,0.000000,0.000000,792.000000,64100.000000,65341.000000,797.000000,128.000000,65495.000000,797.000000,15452.000000,20.000000,19836.000000,0.000000,0.000000,797.000000,6.000000,797.000000,2.000000,797.000000,1015.000000,799.000000,-195.000000,799.000000,-3.000000,799.000000,-83.000000,3971.000000,0.000000,0.000000,0.000000,3971.000000,0.000000,0.000000,0.000000,3973.000000,0.000000,0.000000,0.000000
8001.000000,0.000000,0.000000,0.000000,0.000000,8006.000000,0.000000,0.000000,0.000000,0.000000,0.000000,0.000000,0.000000,0.000000,0.000000,0.000000,0.000000,0.000000,799.000000,64084.000000,65343.000000,805.000000,188.000000,65499.000000,805.000000,15248.000000,22.000000,20077.000000,0.000000,0.000000,805.000000,5.000000,805.000000,6.000000,805.000000,1002.000000,808.000000,-134.000000,808.000000,119.000000,808.000000,-22.000000,4023.000000,0.000000,0.000000,0.000000,4023.000000,0.000000,0.000000,0.000000,4023.000000,0.000000,0.000000,0.000000
8095.000000,0.000000,0.000000,0.000000,0.000000,8101.000000,0.000000,0.000000,0.000000,0.000000,0.000000,0.000000,0.000000,0.000000,0.000000,0.000000,0.000000,0.000000,808.000000,64040.000000,65353.000000,814.000000,96.000000,65498.000000,814.000000,15348.000000,22.000000,20310.000000,0.000000,0.000000,814.000000,2.000000,815.000000,0.000000,815.000000,1008.000000,819.000000,172.000000,819.000000,89.000000,819.000000,-22.000000,4066.000000,0.000000,0.000000,0.000000,4066.000000,0.000000,0.000000,0.000000,4068.000000,0.000000,0.000000,0.000000
8192.000000,0.000000,0.000000,0.000000,0.000000,8197.000000,0.000000,0.000000,0.000000,0.000000,0.000000,0.000000,0.000000,0.000000,0.000000,0.000000,0.000000,0.000000,819.000000,64040.000000,65353.000000,824.000000,96.000000,65498.000000,824.000000,15348.000000,22.000000,20551.000000,0.000000,0.000000,824.000000,2.000000,824.000000,0.000000,824.000000,1008.000000,829.000000,172.000000,829.000000,89.000000,829.000000,-22.000000,4117.000000,0.000000,0.000000,0.000000,4117.000000,0.000000,0.000000,0.000000,4117.000000,0.000000,0.000000,0.000000
8286.000000,0.000000,0.000000,0.000000,0.000000,8291.000000,0.000000,0.000000,0.000000,0.000000,0.000000,0.000000,0.000000,0.000000,0.000000,0.000000,0.000000,0.000000,829.000000,64108.000000,65351.000000,834.000000,124.000000,65497.000000,834.000000,15264.000000,21.000000,20788.000000,0.000000,0.000000,834.000000,6.000000,834.000000,2.000000,834.000000,1003.000000,838.000000,111.000000,838.000000,58.000000,838.000000,-53.000000,4162.000000,0.000000,0.000000,0.000000,4164.000000,0.000000,0.000000,0.000000,4164.000000,0.000000,0.000000,0.000000
8380.000000,0.000000,0.000000,0.000000,0.000000,8385.000000,0.000000,0.000000,0.000000,0.000000,0.000000,0.000000,0.000000,0.000000,0.000000,0.000000,0.000000,0.000000,838.000000,63976.000000,65343.000000,843.000000,120.000000,65489.000000,843.000000,15148.000000,24.000000,21027.000000,0.000000,0.000000,843.000000,-2.000000,843.000000,2.000000,843.000000,996.000000,848.000000,-134.000000,848.000000,-186.000000,848.000000,39.000000,4213.000000,0.000000,0.000000,0.000000,4213.000000,0.000000,0.000000,0.000000,4213.000000,0.000000,0.000000,0.000000
8475.000000,0.000000,0.000000,0.000000,0.000000,8483.000000,0.000000,0.000000,0.000000,0.000000,0.000000,0.000000,0.000000,0.000000,0.000000,0.000000,0.000000,0.000000,848.000000,64108.000000,65347.000000,853.000000,28.000000,65492.000000,853.000000,15264.000000,21.000000,21261.000000,0.000000,0.000000,853.000000,6.000000,853.000000,-4.000000,853.000000,1003.000000,856.000000,-11.000000,856.000000,-94.000000,856.000000,-53.000000,4258.000000,0.000000,0.000000,0.000000,4258.000000,0.000000,0.000000,0.000000,4258.000000,0.000000,0.000000,0.000000
8572.000000,0.000000,0.000000,0.000000,0.000000,8576.000000,0.000000,0.000000,0.000000,0.000000,0.000000,0.000000,0.000000,0.000000,0.000000,0.000000,0.000000,0.000000,856.000000,64072.000000,65341.000000,862.000000,68.000000,65485.000000,862.000000,15088.000000,26.000000,21504.000000,0.000000,0.000000,862.000000,4.000000,862.000000,-1.000000,862.000000,992.000000,866.000000,-195.000000,866.000000,-308.000000,866.000000,100.000000,4307.000000,0.000000,0.000000,0.000000,4307.000000,0.000000,0.000000,0.000000,4307.000000,0.000000,0.000000,0.000000
8666.000000,0.000000,0.000000,0.000000,0.000000,8670.000000,0.000000,0.000000,0.000000,0.000000,0.000000,0.000000,0.000000,0.000000,0.000000,0.000000,0.000000,0.000000,866.000000,64072.000000,65341.000000,871.000000,68.000000,65485.000000,871.000000,15088.000000,26.000000,21735.000000,0.000000,0.000000,871.000000,4.000000,871.000000,-1.000000,871.000000,992.000000,875.000000,-195.000000,875.000000,-308.000000,875.000000,100.000000,4352.000000,0.000000,0.000000,0.000000,4352.000000,0.000000,0.000000,0.000000,4353.000000,0.000000,0.000000,0.000000
8761.000000,0.000000,0.000000,0.000000,0.000000,8766.000000,0.000000,0.000000,0.000000,0.000000,0.000000,0.000000,0.000000,0.000000,0.000000,0.000000,0.000000,0.000000,881.000000,64008.000000,65342.000000,881.000000,168.000000,65476.000000,881.000000,15284.000000,23.000000,21978.000000,0.000000,0.000000,881.000000,0.000000,886.000000,5.000000,886.000000,1004.000000,886.000000,-164.000000,886.000000,-583.000000,886.000000,8.000000,4402.000000,0.000000,0.000000,0.000000,4402.000000,0.000000,0.000000,0.000000,4402.000000,0.000000,0.000000,0.000000
8854.000000,0.000000,0.000000,0.000000,0.000000,8863.000000,0.000000,0.000000,0.000000,0.000000,0.000000,0.000000,0.000000,0.000000,0.000000,0.000000,0.000000,0.000000,887.000000,64208.000000,65342.000000,892.000000,108.000000,65478.000000,892.000000,15328.000000,24.000000,22211.000000,0.000000,0.000000,892.000000,12.000000,892.000000,1.000000,892.000000,1007.000000,894.000000,-164.000000,894.000000,-522.000000,894.000000,39.000000,4446.000000,0.000000,0.000000,0.000000,4447.000000,0.000000,0.000000,0.000000,4448.000000,0.000000,0.000000,0.000000
8952.000000,0.000000,0.000000,0.000000,0.000000,8956.000000,0.000000,0.000000,0.000000,0.000000,0.000000,0.000000,0.000000,0.000000,0.000000,0.000000,0.000000,0.000000,894.000000,64080.000000,65343.000000,900.000000,48.000000,65474.000000,900.000000,15224.000000,32.000000,22453.000000,0.000000,0.000000,900.000000,5.000000,900.000000,-3.000000,900.000000,1001.000000,905.000000,-134.000000,905.000000,-644.000000,905.000000,283.000000,4498.000000,0.000000,0.000000,0.000000,4498.000000,0.000000,0.000000,0.000000,4498.000000,0.000000,0.000000,0.000000
9045.000000,0.000000,0.000000,0.000000,0.000000,9051.000000,0.000000,0.000000,0.000000,0.000000,0.000000,0.000000,0.000000,0.000000,0.000000,0.000000,0.000000,0.000000,905.000000,64080.000000,65343.000000,910.000000,48.000000,65474.000000,910.000000,15224.000000,32.000000,22686.000000,0.000000,0.000000,910.000000,5.000000,911.000000,-3.000000,911.000000,1001.000000,912.000000,-134.000000,912.000000,-644.000000,912.000000,283.000000,4541.000000,0.000000,0.000000,0.000000,4542.000000,0.000000,0.000000,0.000000,4543.000000,0.000000,0.000000,0.000000
9141.000000,0.000000,0.000000,0.000000,0.000000,9146.000000,0.000000,0.000000,0.000000,0.000000,0.000000,0.000000,0.000000,0.000000,0.000000,0.000000,0.000000,0.000000,912.000000,64160.000000,65342.000000,919.000000,132.000000,65491.000000,919.000000,14880.000000,22.000000,22928.000000,0.000000,0.000000,919.000000,10.000000,919.000000,3.000000,919.000000,980.000000,924.000000,-164.000000,924.000000,-125.000000,924.000000,-22.000000,4593.000000,0.000000,0.000000,0.000000,4593.000000,0.000000,0.000000,0.000000,4593.000000,0.000000,0.000000,0.000000
9236.000000,0.000000,0.000000,0.000000,0.000000,9241.000000,0.000000,0.000000,0.000000,0.000000,0.000000,0.000000,0.000000,0.000000,0.000000,0.000000,0.000000,0.000000,924.000000,64124.000000,65349.000000,929.000000,72.000000,65499.000000,929.000000,15056.000000,16.000000,23162.000000,0.000000,0.000000,929.000000,7.000000,929.000000,-1.000000,929.000000,990.000000,931.000000,50.000000,931.000000,119.000000,931.000000,-205.000000,4636.000000,0.000000,0.000000,0.000000,4639.000000,0.000000,0.000000,0.000000,4639.000000,0.000000,0.000000,0.000000
9331.000000,0.000000,0.000000,0.000000,0.000000,9336.000000,0.000000,0.000000,0.000000,0.000000,0.000000,0.000000,0.000000,0.000000,0.000000,0.000000,0.000000,0.000000,933.000000,64124.000000,65312.000000,938.000000,140.000000,65480.000000,938.000000,14516.000000,10.000000,23402.000000,0.000000,0.000000,938.000000,7.000000,938.000000,3.000000,938.000000,958.000000,943.000000,-1080.000000,943.000000,-461.000000,943.000000,-388.000000,4689.000000,0.000000,0.000000,0.000000,4689.000000,0.000000,0.000000,0.000000,4689.000000,0.000000,0.000000,0.000000
9426.000000,0.000000,0.000000,0.000000,0.000000,9431.000000,0.000000,0.000000,0.000000,0.000000,0.000000,0.000000,0.000000,0.000000,0.000000,0.000000,0.000000,0.000000,943.000000,64124.000000,65312.000000,948.000000,140.000000,65480.000000,948.000000,14516.000000,10.000000,23636.000000,0.000000,0.000000,948.000000,7.000000,948.000000,3.000000,948.000000,958.000000,950.000000,-1080.000000,950.000000,-461.000000,950.000000,-388.000000,4732.000000,0.000000,0.000000,0.000000,4732.000000,0.000000,0.000000,0.000000,4733.000000,0.000000,0.000000,0.000000
9521.000000,0.000000,0.000000,0.000000,0.000000,9526.000000,0.000000,0.000000,0.000000,0.000000,0.000000,0.000000,0.000000,0.000000,0.000000,0.000000,0.000000,0.000000,951.000000,64084.000000,65353.000000,957.000000,172.000000,65501.000000,957.000000,15304.000000,26.000000,23876.000000,0.000000,0.000000,957.000000,5.000000,957.000000,5.000000,957.000000,1006.000000,962.000000,172.000000,962.000000,180.000000,962.000000,100.000000,4783.000000,0.000000,0.000000,0.000000,4783.000000,0.000000,0.000000,0.000000,4783.000000,0.000000,0.000000,0.000000
9616.000000,0.000000,0.000000,0.000000,0.000000,9620.000000,0.000000,0.000000,0.000000,0.000000,0.000000,0.000000,0.000000,0.000000,0.000000,0.000000,0.000000,0.000000,962.000000,64180.000000,65343.000000,966.000000,44.000000,65489.000000,966.000000,15296.000000,25.000000,24112.000000,0.000000,0.000000,966.000000,11.000000,966.000000,-3.000000,966.000000,1005.000000,969.000000,-134.000000,969.000000,-186.000000,969.000000,69.000000,4826.000000,0.000000,0.000000,0.000000,4826.000000,0.000000,0.000000,0.000000,4830.000000,0.000000,0.000000,0.000000
9712.000000,0.000000,0.000000,0.000000,0.000000,9716.000000,0.000000,0.000000,0.000000,0.000000,0.000000,0.000000,0.000000,0.000000,0.000000,0.000000,0.000000,0.000000,976.000000,64200.000000,65342.000000,976.000000,240.000000,65481.000000,976.000000,15136.000000,25.000000,24351.000000,0.000000,0.000000,977.000000,12.000000,979.000000,9.000000,979.000000,995.000000,979.000000,-164.000000,979.000000,-430.000000,979.000000,69.000000,4879.000000,0.000000,0.000000,0.000000,4879.000000,0.000000,0.000000,0.000000,4879.000000,0.000000,0.000000,0.000000
9806.000000,0.000000,0.000000,0.000000,0.000000,9811.000000,0.000000,0.000000,0.000000,0.000000,0.000000,0.000000,0.000000,0.000000,0.000000,0.000000,0.000000,0.000000,983.000000,64200.000000,65342.000000,988.000000,240.000000,65481.000000,988.000000,15136.000000,25.000000,24586.000000,0.000000,0.000000,988.000000,12.000000,988.000000,9.000000,988.000000,995.000000,989.000000,-164.000000,989.000000,-430.000000,989.000000,69.000000,4923.000000,0.000000,0.000000,0.000000,4923.000000,0.000000,0.000000,0.000000,4923.000000,0.000000,0.000000,0.000000
9899.000000,0.000000,0.000000,0.000000,0.000000,9907.000000,0.000000,0.000000,0.000000,0.000000,0.000000,0.000000,0.000000,0.000000,0.000000,0.000000,0.000000,0.000000,989.000000,64096.000000,65349.000000,995.000000,132.000000,65492.000000,995.000000,15268.000000,18.000000,24828.000000,0.000000,0.000000,995.000000,6.000000,995.000000,3.000000,995.000000,1003.000000,999.000000,50.000000,999.000000,-94.000000,999.000000,-144.000000,4973.000000,0.000000,0.000000,0.000000,4973.000000,0.000000,0.000000,0.000000,4973.000000,0.000000,0.000000,0.000000
9994.000000,0.000000,0.000000,0.000000,0.000000,10001.000000,0.000000,0.000000,0.000000,0.000000,0.000000,0.000000,0.000000,0.000000,0.000000,0.000000,0.000000,0.000000,999.000000,64156.000000,65345.000000,1005.000000,88.000000,65494.000000,1005.000000,15208.000000,20.000000,25063.000000,0.000000,0.000000,1005.000000,9.000000,1005.000000,0.000000,1005.000000,1000.000000,1008.000000,-73.000000,1008.000000,-33.000000,1008.000000,-83.000000,5016.000000,0.000000,0.000000,0.000000,5016.000000,0.000000,0.000000,0.000000,5018.000000,0.000000,0.000000,0.000000
10090.000000,0.000000,0.000000,0.000000,0.000000,10096.000000,0.000000,0.000000,0.000000,0.000000,0.000000,0.000000,0.000000,0.000000,0.000000,0.000000,0.000000,0.000000,1008.000000,64044.000000,65344.000000,1016.000000,208.000000,65493.000000,1016.000000,15212.000000,21.000000,25302.000000,0.000000,0.000000,1016.000000,2.000000,1016.000000,7.000000,1016.000000,1000.000000,1017.000000,-103.000000,1017.000000,-64.000000,1017.000000,-53.000000,5068.000000,0.000000,0.000000,0.000000,5068.000000,0.000000,0.000000,0.000000,5068.000000,0.000000,0.000000,0.000000
